[{"oris_code": 57053, "plant_name": "Alakanuk", "latitude": 62.6833, "longitude": -164.6544, "primary_fuel": "DFO", "primary_fuel_category": "OIL", "nameplate_mw": 0.8, "annual_net_gen_mwh": 0.0}, {"oris_code": 58982, "plant_name": "Allison Creek Hydro", "latitude": 61.084444, "longitude": -146.353333, "primary_fuel": "WAT", "primary_fuel_category": "HYDRO", "nameplate_mw": 6.5, "annual_net_gen_mwh": 20961.0}, {"oris_code": 60243, "plant_name": "Ambler", "latitude": 67.08798, "longitude": -157.856719, "primary_fuel": "DFO", "primary_fuel_category": "OIL", "nameplate_mw": 1.1, "annual_net_gen_mwh": 1238.999}, {"oris_code": 7462, "plant_name": "Angoon", "latitude": 57.499166, "longitude": -134.58614, "primary_fuel": "DFO", "primary_fuel_category": "OIL", "nameplate_mw": 1.5, "annual_net_gen_mwh": 1815.999}, {"oris_code": 7182, "plant_name": "Aniak", "latitude": 61.580678, "longitude": -159.535643, "primary_fuel": "DFO", "primary_fuel_category": "OIL", "nameplate_mw": 1.7, "annual_net_gen_mwh": 2016.999}, {"oris_code": 62, "plant_name": "Annex Creek", "latitude": 58.3176, "longitude": -134.101, "primary_fuel": "WAT", "primary_fuel_category": "HYDRO", "nameplate_mw": 4.0, "annual_net_gen_mwh": 8383.0}, {"oris_code": 7250, "plant_name": "Auke Bay", "latitude": 58.3875, "longitude": -134.6446, "primary_fuel": "DFO", "primary_fuel_category": "OIL", "nameplate_mw": 36.2, "annual_net_gen_mwh": -236.0}, {"oris_code": 79, "plant_name": "Aurora Energy LLC Chena", "latitude": 64.847743, "longitude": -147.735063, "primary_fuel": "SUB", "primary_fuel_category": "COAL", "nameplate_mw": 27.5, "annual_net_gen_mwh": 143360.0}, {"oris_code": 7173, "plant_name": "Barrow", "latitude": 71.292, "longitude": -156.7786, "primary_fuel": "NG", "primary_fuel_category": "GAS", "nameplate_mw": 17.3, "annual_net_gen_mwh": 46662.001}, {"oris_code": 57583, "plant_name": "Battery Energy Storage System", "latitude": 64.8167, "longitude": -147.725, "primary_fuel": "MWH", "primary_fuel_category": "OTHF", "nameplate_mw": 40.0, "annual_net_gen_mwh": -2443.0}, {"oris_code": 6580, "plant_name": "Beaver Falls", "latitude": 55.37975, "longitude": -131.470269, "primary_fuel": "WAT", "primary_fuel_category": "HYDRO", "nameplate_mw": 5.4, "annual_net_gen_mwh": 42498.999}, {"oris_code": 96, "plant_name": "Beluga", "latitude": 61.1861, "longitude": -151.0356, "primary_fuel": "NG", "primary_fuel_category": "GAS", "nameplate_mw": 312.4, "annual_net_gen_mwh": 525.001}, {"oris_code": 6292, "plant_name": "Bernice Lake", "latitude": 60.6935, "longitude": -151.3874, "primary_fuel": "NG", "primary_fuel_category": "GAS", "nameplate_mw": 76.7, "annual_net_gen_mwh": 0.0}, {"oris_code": 6566, "plant_name": "Bethel", "latitude": 60.7897, "longitude": -161.787778, "primary_fuel": "DFO", "primary_fuel_category": "OIL", "nameplate_mw": 12.6, "annual_net_gen_mwh": 43935.0}, {"oris_code": 7752, "plant_name": "Black Bear Lake", "latitude": 55.476472, "longitude": -133.14772, "primary_fuel": "WAT", "primary_fuel_category": "HYDRO", "nameplate_mw": 4.5, "annual_net_gen_mwh": 20403.0}, {"oris_code": 93, "plant_name": "Blue Lake Hydro", "latitude": 57.0516, "longitude": -135.2297, "primary_fuel": "WAT", "primary_fuel_category": "HYDRO", "nameplate_mw": 15.9, "annual_net_gen_mwh": 80294.001}, {"oris_code": 7367, "plant_name": "Bradley Lake", "latitude": 59.77862, "longitude": -150.94015, "primary_fuel": "WAT", "primary_fuel_category": "HYDRO", "nameplate_mw": 126.0, "annual_net_gen_mwh": 395080.0}, {"oris_code": 60260, "plant_name": "Brevig Mission", "latitude": 65.331716, "longitude": -166.479506, "primary_fuel": "DFO", "primary_fuel_category": "OIL", "nameplate_mw": 1.0, "annual_net_gen_mwh": 1352.0}, {"oris_code": 7112, "plant_name": "Centennial", "latitude": 55.121433, "longitude": -131.560267, "primary_fuel": "DFO", "primary_fuel_category": "OIL", "nameplate_mw": 1.8, "annual_net_gen_mwh": 283.0}, {"oris_code": 7168, "plant_name": "Chester Lake", "latitude": 55.116879, "longitude": -131.545879, "primary_fuel": "WAT", "primary_fuel_category": "HYDRO", "nameplate_mw": 1.3, "annual_net_gen_mwh": 4521.0}, {"oris_code": 6311, "plant_name": "Chevak", "latitude": 61.525297, "longitude": -165.590152, "primary_fuel": "DFO", "primary_fuel_category": "OIL", "nameplate_mw": 1.8, "annual_net_gen_mwh": 3095.0}, {"oris_code": 6291, "plant_name": "Cooper Lake", "latitude": 60.392331, "longitude": -149.665603, "primary_fuel": "WAT", "primary_fuel_category": "HYDRO", "nameplate_mw": 19.4, "annual_net_gen_mwh": 46389.0}, {"oris_code": 421, "plant_name": "Craig (AK)", "latitude": 55.47691, "longitude": -133.14869, "primary_fuel": "DFO", "primary_fuel_category": "OIL", "nameplate_mw": 4.6, "annual_net_gen_mwh": 1824.999}, {"oris_code": 56325, "plant_name": "Delta Power", "latitude": 64.028056, "longitude": -145.719444, "primary_fuel": "DFO", "primary_fuel_category": "OIL", "nameplate_mw": 23.1, "annual_net_gen_mwh": 103.0}, {"oris_code": 58511, "plant_name": "Delta Wind Farm", "latitude": 64.013889, "longitude": -145.596667, "primary_fuel": "WND", "primary_fuel_category": "WIND", "nameplate_mw": 1.9, "annual_net_gen_mwh": 3983.0}, {"oris_code": 109, "plant_name": "Dillingham", "latitude": 59.042914, "longitude": -158.468597, "primary_fuel": "DFO", "primary_fuel_category": "OIL", "nameplate_mw": 11.0, "annual_net_gen_mwh": 18685.999}, {"oris_code": 7502, "plant_name": "Dutch Harbor", "latitude": 53.892459, "longitude": -166.538185, "primary_fuel": "DFO", "primary_fuel_category": "OIL", "nameplate_mw": 21.9, "annual_net_gen_mwh": 43380.998}, {"oris_code": 58405, "plant_name": "ESS Battery Microgrid", "latitude": 57.799167, "longitude": -152.404167, "primary_fuel": "MWH", "primary_fuel_category": "OTHF", "nameplate_mw": 3.0, "annual_net_gen_mwh": -217.0}, {"oris_code": 50392, "plant_name": "Eielson AFB Central Heat & Power Plant", "latitude": 64.67141, "longitude": -147.075988, "primary_fuel": "SUB", "primary_fuel_category": "COAL", "nameplate_mw": 26.0, "annual_net_gen_mwh": 86880.0}, {"oris_code": 58989, "plant_name": "Eklutna Generation Station", "latitude": 61.457778, "longitude": -149.351389, "primary_fuel": "NG", "primary_fuel_category": "GAS", "nameplate_mw": 171.0, "annual_net_gen_mwh": 716969.0}, {"oris_code": 77, "plant_name": "Eklutna Hydro Project", "latitude": 61.475211, "longitude": -149.15009, "primary_fuel": "WAT", "primary_fuel_category": "HYDRO", "nameplate_mw": 44.4, "annual_net_gen_mwh": 197787.0}, {"oris_code": 57060, "plant_name": "Elim", "latitude": 64.616558, "longitude": -162.263717, "primary_fuel": "DFO", "primary_fuel_category": "OIL", "nameplate_mw": 1.1, "annual_net_gen_mwh": 1294.0}, {"oris_code": 6314, "plant_name": "Emmonak", "latitude": 62.777694, "longitude": -164.531517, "primary_fuel": "DFO", "primary_fuel_category": "OIL", "nameplate_mw": 3.2, "annual_net_gen_mwh": 5820.0}, {"oris_code": 57935, "plant_name": "Eva Creek Wind", "latitude": 64.058333, "longitude": -148.9, "primary_fuel": "WND", "primary_fuel_category": "WIND", "nameplate_mw": 24.6, "annual_net_gen_mwh": 31127.0}, {"oris_code": 62714, "plant_name": "Eyak Service Center BESS", "latitude": 60.54047, "longitude": -145.74079, "primary_fuel": "MWH", "primary_fuel_category": "OTHF", "nameplate_mw": 1.0, "annual_net_gen_mwh": -75.0}, {"oris_code": 6286, "plant_name": "Fairbanks", "latitude": 64.854171, "longitude": -147.719351, "primary_fuel": "DFO", "primary_fuel_category": "OIL", "nameplate_mw": 42.2, "annual_net_gen_mwh": 6275.0}, {"oris_code": 56146, "plant_name": "False Island", "latitude": 55.48918, "longitude": -133.1345, "primary_fuel": "DFO", "primary_fuel_category": "OIL", "nameplate_mw": 3.8, "annual_net_gen_mwh": 513.0}, {"oris_code": 58425, "plant_name": "Fire Island Wind", "latitude": 61.13, "longitude": -150.243611, "primary_fuel": "WND", "primary_fuel_category": "WIND", "nameplate_mw": 18.0, "annual_net_gen_mwh": 46280.0}, {"oris_code": 60563, "plant_name": "Flywheel Energy Storage System Microgrid", "latitude": 57.780114, "longitude": -152.443783, "primary_fuel": "MWH", "primary_fuel_category": "OTHF", "nameplate_mw": 2.0, "annual_net_gen_mwh": -395.0}, {"oris_code": 54834, "plant_name": "Fort Greely Power Plant", "latitude": 63.973572, "longitude": -145.716581, "primary_fuel": "DFO", "primary_fuel_category": "OIL", "nameplate_mw": 7.4, "annual_net_gen_mwh": 98.0}, {"oris_code": 7437, "plant_name": "Galena Electric Utility", "latitude": 64.74417, "longitude": -156.8736, "primary_fuel": "DFO", "primary_fuel_category": "OIL", "nameplate_mw": 3.1, "annual_net_gen_mwh": NaN}, {"oris_code": 57062, "plant_name": "Gambell", "latitude": 63.777058, "longitude": -171.712439, "primary_fuel": "DFO", "primary_fuel_category": "OIL", "nameplate_mw": 1.8, "annual_net_gen_mwh": 2463.001}, {"oris_code": 6559, "plant_name": "George M Sullivan Generation Plant 2", "latitude": 61.229713, "longitude": -149.716744, "primary_fuel": "NG", "primary_fuel_category": "GAS", "nameplate_mw": 346.9, "annual_net_gen_mwh": 911296.0}, {"oris_code": 6305, "plant_name": "Glennallen", "latitude": 62.110415, "longitude": -145.532529, "primary_fuel": "DFO", "primary_fuel_category": "OIL", "nameplate_mw": 9.2, "annual_net_gen_mwh": 5684.999}, {"oris_code": 7751, "plant_name": "Goat Lake Hydro", "latitude": 59.5357, "longitude": -135.2123, "primary_fuel": "WAT", "primary_fuel_category": "HYDRO", "nameplate_mw": 4.0, "annual_net_gen_mwh": 15751.0}, {"oris_code": 63, "plant_name": "Gold Creek", "latitude": 58.3107, "longitude": -134.4174, "primary_fuel": "WAT", "primary_fuel_category": "HYDRO", "nameplate_mw": 9.7, "annual_net_gen_mwh": 9096.999}, {"oris_code": 313, "plant_name": "Green Lake", "latitude": 56.986284, "longitude": -135.12275, "primary_fuel": "WAT", "primary_fuel_category": "HYDRO", "nameplate_mw": 18.6, "annual_net_gen_mwh": 41779.0}, {"oris_code": 65767, "plant_name": "Gustavus", "latitude": 58.419497, "longitude": -135.70737, "primary_fuel": "DFO", "primary_fuel_category": "OIL", "nameplate_mw": 1.4, "annual_net_gen_mwh": 319.001}, {"oris_code": 7174, "plant_name": "Gwitchyaa Zhee", "latitude": 66.566287, "longitude": -145.253052, "primary_fuel": "DFO", "primary_fuel_category": "OIL", "nameplate_mw": 2.8, "annual_net_gen_mwh": 2463.0}, {"oris_code": 69, "plant_name": "Haines", "latitude": 59.235931, "longitude": -135.446228, "primary_fuel": "DFO", "primary_fuel_category": "OIL", "nameplate_mw": 9.6, "annual_net_gen_mwh": 241.999}, {"oris_code": 75, "plant_name": "Hank Nikkels Plant 1", "latitude": 61.2221, "longitude": -149.8661, "primary_fuel": "NG", "primary_fuel_category": "GAS", "nameplate_mw": 77.9, "annual_net_gen_mwh": 37067.0}, {"oris_code": 6288, "plant_name": "Healy Power Plant", "latitude": 63.8542, "longitude": -148.95, "primary_fuel": "LIG", "primary_fuel_category": "COAL", "nameplate_mw": 92.8, "annual_net_gen_mwh": 375778.0}, {"oris_code": 59037, "plant_name": "Hiilangaay Hydro", "latitude": 55.217254, "longitude": -132.61003, "primary_fuel": "WAT", "primary_fuel_category": "HYDRO", "nameplate_mw": 5.0, "annual_net_gen_mwh": 6417.0}, {"oris_code": 7463, "plant_name": "Hoonah", "latitude": 58.106432, "longitude": -135.43074, "primary_fuel": "DFO", "primary_fuel_category": "OIL", "nameplate_mw": 2.0, "annual_net_gen_mwh": 4240.0}, {"oris_code": 6319, "plant_name": "Hooper Bay", "latitude": 61.530858, "longitude": -166.101944, "primary_fuel": "DFO", "primary_fuel_category": "OIL", "nameplate_mw": 2.2, "annual_net_gen_mwh": 3568.999}, {"oris_code": 66887, "plant_name": "Houston Solar", "latitude": 61.59, "longitude": -149.79, "primary_fuel": "SUN", "primary_fuel_category": "SOLAR", "nameplate_mw": 6.0, "annual_net_gen_mwh": 46.0}, {"oris_code": 7042, "plant_name": "Humpback Creek", "latitude": 60.612822, "longitude": -145.679411, "primary_fuel": "WAT", "primary_fuel_category": "HYDRO", "nameplate_mw": 1.2, "annual_net_gen_mwh": 2950.001}, {"oris_code": 423, "plant_name": "Hydaburg", "latitude": 55.204937, "longitude": -132.821435, "primary_fuel": "DFO", "primary_fuel_category": "OIL", "nameplate_mw": 1.0, "annual_net_gen_mwh": 0.0}, {"oris_code": 59793, "plant_name": "Industrial Plant", "latitude": 58.367635, "longitude": -134.60802, "primary_fuel": "DFO", "primary_fuel_category": "OIL", "nameplate_mw": 41.7, "annual_net_gen_mwh": -121.0}, {"oris_code": 6293, "plant_name": "International", "latitude": 61.168972, "longitude": -149.911038, "primary_fuel": "NG", "primary_fuel_category": "GAS", "nameplate_mw": 15.0, "annual_net_gen_mwh": 0.0}, {"oris_code": 58380, "plant_name": "JBER Landfill Gas Power Plant", "latitude": 61.286, "longitude": -149.61, "primary_fuel": "LFG", "primary_fuel_category": "BIOMASS", "nameplate_mw": 11.5, "annual_net_gen_mwh": 38920.0}, {"oris_code": 6801, "plant_name": "Jarvis Street", "latitude": 57.0497, "longitude": -135.3128, "primary_fuel": "DFO", "primary_fuel_category": "OIL", "nameplate_mw": 25.6, "annual_net_gen_mwh": -834.999}, {"oris_code": 7464, "plant_name": "Kake", "latitude": 56.962983, "longitude": -133.922557, "primary_fuel": "DFO", "primary_fuel_category": "OIL", "nameplate_mw": 3.1, "annual_net_gen_mwh": 1509.998}, {"oris_code": 56542, "plant_name": "Kasidaya Creek Hydro", "latitude": 59.4072, "longitude": -135.3408, "primary_fuel": "WAT", "primary_fuel_category": "HYDRO", "nameplate_mw": 3.0, "annual_net_gen_mwh": 8774.0}, {"oris_code": 57066, "plant_name": "Kasigluk", "latitude": 60.8731, "longitude": -162.5197, "primary_fuel": "DFO", "primary_fuel_category": "OIL", "nameplate_mw": 2.0, "annual_net_gen_mwh": 2949.0}, {"oris_code": 84, "plant_name": "Ketchikan", "latitude": 55.344641, "longitude": -131.633425, "primary_fuel": "WAT", "primary_fuel_category": "HYDRO", "nameplate_mw": 4.2, "annual_net_gen_mwh": 22422.999}, {"oris_code": 6323, "plant_name": "Kiana", "latitude": 66.973889, "longitude": -160.428592, "primary_fuel": "DFO", "primary_fuel_category": "OIL", "nameplate_mw": 1.2, "annual_net_gen_mwh": 1790.0}, {"oris_code": 7493, "plant_name": "King Cove", "latitude": 55.061683, "longitude": -162.3103, "primary_fuel": "WAT", "primary_fuel_category": "HYDRO", "nameplate_mw": 3.0, "annual_net_gen_mwh": 4479.001}, {"oris_code": 57065, "plant_name": "Kivalina", "latitude": 67.726644, "longitude": -164.538447, "primary_fuel": "DFO", "primary_fuel_category": "OIL", "nameplate_mw": 1.5, "annual_net_gen_mwh": 1682.0}, {"oris_code": 61684, "plant_name": "Klawock Power Generation Station", "latitude": 55.553197, "longitude": -133.08535, "primary_fuel": "DFO", "primary_fuel_category": "OIL", "nameplate_mw": 2.5, "annual_net_gen_mwh": 1212.0}, {"oris_code": 6281, "plant_name": "Kodiak Microgrid", "latitude": 57.789956, "longitude": -152.396982, "primary_fuel": "DFO", "primary_fuel_category": "OIL", "nameplate_mw": 18.3, "annual_net_gen_mwh": 0.0}, {"oris_code": 57064, "plant_name": "Kotlik", "latitude": 63.03215, "longitude": -163.553106, "primary_fuel": "DFO", "primary_fuel_category": "OIL", "nameplate_mw": 1.4, "annual_net_gen_mwh": 2048.0}, {"oris_code": 6304, "plant_name": "Kotzebue Hybrid", "latitude": 66.837778, "longitude": -162.556944, "primary_fuel": "DFO", "primary_fuel_category": "OIL", "nameplate_mw": 18.0, "annual_net_gen_mwh": 24226.999}, {"oris_code": 57059, "plant_name": "Koyuk", "latitude": 64.932089, "longitude": -161.167103, "primary_fuel": "DFO", "primary_fuel_category": "OIL", "nameplate_mw": 1.1, "annual_net_gen_mwh": 1321.001}, {"oris_code": 57085, "plant_name": "Lake Dorothy Hydroelectric Project", "latitude": 58.2325, "longitude": -134.0533, "primary_fuel": "WAT", "primary_fuel_category": "HYDRO", "nameplate_mw": 14.3, "annual_net_gen_mwh": 88602.0}, {"oris_code": 64, "plant_name": "Lemon Creek", "latitude": 58.3536, "longitude": -134.4953, "primary_fuel": "DFO", "primary_fuel_category": "OIL", "nameplate_mw": 61.7, "annual_net_gen_mwh": -816.998}, {"oris_code": 60244, "plant_name": "Marshall", "latitude": 61.878186, "longitude": -162.085147, "primary_fuel": "DFO", "primary_fuel_category": "OIL", "nameplate_mw": 1.1, "annual_net_gen_mwh": 1587.0}, {"oris_code": 6555, "plant_name": "McGrath", "latitude": 62.95699, "longitude": -155.594997, "primary_fuel": "DFO", "primary_fuel_category": "OIL", "nameplate_mw": 1.6, "annual_net_gen_mwh": 2022.0}, {"oris_code": 6329, "plant_name": "Mountain Village", "latitude": 62.085569, "longitude": -163.729072, "primary_fuel": "DFO", "primary_fuel_category": "OIL", "nameplate_mw": 2.3, "annual_net_gen_mwh": 0.0}, {"oris_code": 7487, "plant_name": "NSB Anaktuvuk Pass", "latitude": 68.13795, "longitude": -151.741017, "primary_fuel": "DFO", "primary_fuel_category": "OIL", "nameplate_mw": 2.7, "annual_net_gen_mwh": 3744.0}, {"oris_code": 7482, "plant_name": "NSB Atqasuk Utility", "latitude": 70.4826, "longitude": -157.4252, "primary_fuel": "DFO", "primary_fuel_category": "OIL", "nameplate_mw": 3.2, "annual_net_gen_mwh": 2032.999}, {"oris_code": 7483, "plant_name": "NSB Kaktovik Utility", "latitude": 70.125617, "longitude": -143.619033, "primary_fuel": "DFO", "primary_fuel_category": "OIL", "nameplate_mw": 2.6, "annual_net_gen_mwh": 4889.0}, {"oris_code": 7484, "plant_name": "NSB Nuiqsut Utility", "latitude": 70.220565, "longitude": -150.993492, "primary_fuel": "NG", "primary_fuel_category": "GAS", "nameplate_mw": 4.4, "annual_net_gen_mwh": 7410.001}, {"oris_code": 7485, "plant_name": "NSB Point Hope Utility", "latitude": 68.348424, "longitude": -166.737211, "primary_fuel": "DFO", "primary_fuel_category": "OIL", "nameplate_mw": 3.1, "annual_net_gen_mwh": 6725.0}, {"oris_code": 7486, "plant_name": "NSB Point Lay Utility", "latitude": 69.740833, "longitude": -163.005833, "primary_fuel": "DFO", "primary_fuel_category": "OIL", "nameplate_mw": 2.4, "annual_net_gen_mwh": 3572.0}, {"oris_code": 7488, "plant_name": "NSB Wainwright Utility", "latitude": 70.642877, "longitude": -160.020461, "primary_fuel": "DFO", "primary_fuel_category": "OIL", "nameplate_mw": 3.0, "annual_net_gen_mwh": 6839.001}, {"oris_code": 6301, "plant_name": "Naknek", "latitude": 58.730417, "longitude": -157.007222, "primary_fuel": "DFO", "primary_fuel_category": "OIL", "nameplate_mw": 16.5, "annual_net_gen_mwh": 23477.861}, {"oris_code": 60245, "plant_name": "New Stuyahok", "latitude": 59.448358, "longitude": -157.325528, "primary_fuel": "DFO", "primary_fuel_category": "OIL", "nameplate_mw": 1.8, "annual_net_gen_mwh": 1871.0}, {"oris_code": 7183, "plant_name": "Newhalen", "latitude": 59.899054, "longitude": -154.698735, "primary_fuel": "WAT", "primary_fuel_category": "HYDRO", "nameplate_mw": 1.7, "annual_net_gen_mwh": 3174.0}, {"oris_code": 55966, "plant_name": "Nikiski Combined Cycle", "latitude": 60.676539, "longitude": -151.377713, "primary_fuel": "NG", "primary_fuel_category": "GAS", "nameplate_mw": 80.8, "annual_net_gen_mwh": 416835.0}, {"oris_code": 57051, "plant_name": "Noatak", "latitude": 67.570931, "longitude": -162.965728, "primary_fuel": "DFO", "primary_fuel_category": "OIL", "nameplate_mw": 1.3, "annual_net_gen_mwh": 1912.001}, {"oris_code": 6330, "plant_name": "Noorvik", "latitude": 66.834519, "longitude": -161.038717, "primary_fuel": "DFO", "primary_fuel_category": "OIL", "nameplate_mw": 1.5, "annual_net_gen_mwh": 2181.0}, {"oris_code": 6285, "plant_name": "North Pole", "latitude": 64.7356, "longitude": -147.3481, "primary_fuel": "WO", "primary_fuel_category": "OIL", "nameplate_mw": 181.0, "annual_net_gen_mwh": 444703.0}, {"oris_code": 7169, "plant_name": "Northway", "latitude": 62.9617, "longitude": -141.9372, "primary_fuel": "DFO", "primary_fuel_category": "OIL", "nameplate_mw": 1.1, "annual_net_gen_mwh": 1131.0}, {"oris_code": 6333, "plant_name": "Nunapitchuk", "latitude": 60.89588, "longitude": -162.459756, "primary_fuel": "DFO", "primary_fuel_category": "OIL", "nameplate_mw": 0.5, "annual_net_gen_mwh": NaN}, {"oris_code": 54452, "plant_name": "Nutrien Kenai Nitrogen Operations", "latitude": 60.6732, "longitude": -151.3784, "primary_fuel": "NG", "primary_fuel_category": "GAS", "nameplate_mw": 12.5, "annual_net_gen_mwh": NaN}, {"oris_code": 7723, "plant_name": "Nymans Plant Microgrid", "latitude": 57.731608, "longitude": -152.507044, "primary_fuel": "DFO", "primary_fuel_category": "OIL", "nameplate_mw": 10.0, "annual_net_gen_mwh": 0.0}, {"oris_code": 789, "plant_name": "Orca", "latitude": 60.555889, "longitude": -145.752983, "primary_fuel": "DFO", "primary_fuel_category": "OIL", "nameplate_mw": 12.2, "annual_net_gen_mwh": 6290.0}, {"oris_code": 6702, "plant_name": "Pelican", "latitude": 57.957197, "longitude": -136.220095, "primary_fuel": "WAT", "primary_fuel_category": "HYDRO", "nameplate_mw": 2.4, "annual_net_gen_mwh": 1581.0}, {"oris_code": 91, "plant_name": "Petersburg", "latitude": 56.81104, "longitude": -132.957091, "primary_fuel": "DFO", "primary_fuel_category": "OIL", "nameplate_mw": 16.3, "annual_net_gen_mwh": 779.999}, {"oris_code": 57187, "plant_name": "Pillar Mountain Wind Project Microgrid", "latitude": 57.7869, "longitude": -152.4406, "primary_fuel": "WND", "primary_fuel_category": "WIND", "nameplate_mw": 9.0, "annual_net_gen_mwh": 24073.0}, {"oris_code": 57058, "plant_name": "Pilot Station", "latitude": 61.936456, "longitude": -162.880706, "primary_fuel": "DFO", "primary_fuel_category": "OIL", "nameplate_mw": 1.3, "annual_net_gen_mwh": 1898.0}, {"oris_code": 6282, "plant_name": "Port Lions Microgrid", "latitude": 57.864775, "longitude": -152.855441, "primary_fuel": "DFO", "primary_fuel_category": "OIL", "nameplate_mw": 0.5, "annual_net_gen_mwh": NaN}, {"oris_code": 7862, "plant_name": "Power Creek", "latitude": 60.588686, "longitude": -145.604539, "primary_fuel": "WAT", "primary_fuel_category": "HYDRO", "nameplate_mw": 6.0, "annual_net_gen_mwh": 19154.0}, {"oris_code": 6302, "plant_name": "Purple Lake", "latitude": 55.091263, "longitude": -131.544978, "primary_fuel": "WAT", "primary_fuel_category": "HYDRO", "nameplate_mw": 3.9, "annual_net_gen_mwh": 12485.001}, {"oris_code": 57057, "plant_name": "Quinhagak", "latitude": 59.747436, "longitude": -161.910647, "primary_fuel": "DFO", "primary_fuel_category": "OIL", "nameplate_mw": 1.7, "annual_net_gen_mwh": 2409.0}, {"oris_code": 85, "plant_name": "S W Bailey", "latitude": 55.357397, "longitude": -131.69696, "primary_fuel": "DFO", "primary_fuel_category": "OIL", "nameplate_mw": 25.9, "annual_net_gen_mwh": -140.0}, {"oris_code": 65, "plant_name": "Salmon Creek 1", "latitude": 58.3269, "longitude": -134.4631, "primary_fuel": "WAT", "primary_fuel_category": "HYDRO", "nameplate_mw": 8.5, "annual_net_gen_mwh": 28811.0}, {"oris_code": 1, "plant_name": "Sand Point", "latitude": 55.339722, "longitude": -160.497222, "primary_fuel": "DFO", "primary_fuel_category": "OIL", "nameplate_mw": 4.4, "annual_net_gen_mwh": 3301.0}, {"oris_code": 57052, "plant_name": "Savoonga", "latitude": 63.695267, "longitude": -170.475661, "primary_fuel": "DFO", "primary_fuel_category": "OIL", "nameplate_mw": 1.7, "annual_net_gen_mwh": 2410.001}, {"oris_code": 57056, "plant_name": "Scammon Bay", "latitude": 61.843036, "longitude": -165.581497, "primary_fuel": "DFO", "primary_fuel_category": "OIL", "nameplate_mw": 1.3, "annual_net_gen_mwh": 1844.001}, {"oris_code": 6341, "plant_name": "Selawik", "latitude": 66.606778, "longitude": -160.014808, "primary_fuel": "DFO", "primary_fuel_category": "OIL", "nameplate_mw": 2.2, "annual_net_gen_mwh": 2790.0}, {"oris_code": 6283, "plant_name": "Seldovia", "latitude": 59.439542, "longitude": -151.713439, "primary_fuel": "DFO", "primary_fuel_category": "OIL", "nameplate_mw": 2.2, "annual_net_gen_mwh": 17.0}, {"oris_code": 92, "plant_name": "Seward (AK)", "latitude": 60.130922, "longitude": -149.43501, "primary_fuel": "DFO", "primary_fuel_category": "OIL", "nameplate_mw": 15.6, "annual_net_gen_mwh": 507.0}, {"oris_code": 6345, "plant_name": "Shishmaref", "latitude": 66.255072, "longitude": -166.073589, "primary_fuel": "DFO", "primary_fuel_category": "OIL", "nameplate_mw": 1.5, "annual_net_gen_mwh": 1766.0}, {"oris_code": 57063, "plant_name": "Shungnak", "latitude": 66.888114, "longitude": -157.140206, "primary_fuel": "DFO", "primary_fuel_category": "OIL", "nameplate_mw": 1.2, "annual_net_gen_mwh": 1746.0}, {"oris_code": 6581, "plant_name": "Silvis", "latitude": 55.381402, "longitude": -131.517758, "primary_fuel": "WAT", "primary_fuel_category": "HYDRO", "nameplate_mw": 2.1, "annual_net_gen_mwh": 11460.0}, {"oris_code": 66, "plant_name": "Skagway", "latitude": 59.4545, "longitude": -135.3131, "primary_fuel": "DFO", "primary_fuel_category": "OIL", "nameplate_mw": 4.7, "annual_net_gen_mwh": 4023.0}, {"oris_code": 61685, "plant_name": "Slana Generating Station", "latitude": 62.592756, "longitude": -143.588869, "primary_fuel": "DFO", "primary_fuel_category": "OIL", "nameplate_mw": 1.2, "annual_net_gen_mwh": 1287.0}, {"oris_code": 90, "plant_name": "Snake River", "latitude": 64.505331, "longitude": -165.429814, "primary_fuel": "DFO", "primary_fuel_category": "OIL", "nameplate_mw": 18.4, "annual_net_gen_mwh": NaN}, {"oris_code": 78, "plant_name": "Snettisham", "latitude": 58.1415, "longitude": -133.737, "primary_fuel": "WAT", "primary_fuel_category": "HYDRO", "nameplate_mw": 78.2, "annual_net_gen_mwh": 302088.001}, {"oris_code": 57206, "plant_name": "Soldotna", "latitude": 60.499444, "longitude": -150.997222, "primary_fuel": "NG", "primary_fuel_category": "GAS", "nameplate_mw": 96.5, "annual_net_gen_mwh": 21614.0}, {"oris_code": 390, "plant_name": "Solomon Gulch", "latitude": 61.0828, "longitude": -146.3033, "primary_fuel": "WAT", "primary_fuel_category": "HYDRO", "nameplate_mw": 12.0, "annual_net_gen_mwh": 33930.0}, {"oris_code": 56265, "plant_name": "South Fork", "latitude": 55.563333, "longitude": -132.891111, "primary_fuel": "WAT", "primary_fuel_category": "HYDRO", "nameplate_mw": 2.0, "annual_net_gen_mwh": 5437.0}, {"oris_code": 57036, "plant_name": "Southcentral Power Project", "latitude": 61.167417, "longitude": -149.905304, "primary_fuel": "NG", "primary_fuel_category": "GAS", "nameplate_mw": 203.9, "annual_net_gen_mwh": 905296.0}, {"oris_code": 6338, "plant_name": "St Marys IC", "latitude": 62.051525, "longitude": -163.172567, "primary_fuel": "DFO", "primary_fuel_category": "OIL", "nameplate_mw": 4.6, "annual_net_gen_mwh": 5860.0}, {"oris_code": 57061, "plant_name": "St. Michael", "latitude": 63.4775, "longitude": -162.0383, "primary_fuel": "DFO", "primary_fuel_category": "OIL", "nameplate_mw": 0.7, "annual_net_gen_mwh": NaN}, {"oris_code": 57055, "plant_name": "Stebbins", "latitude": 63.521047, "longitude": -162.286322, "primary_fuel": "DFO", "primary_fuel_category": "OIL", "nameplate_mw": 2.0, "annual_net_gen_mwh": 3531.0}, {"oris_code": 60250, "plant_name": "Swampy Acres Microgrid", "latitude": 57.77556, "longitude": -152.48028, "primary_fuel": "DFO", "primary_fuel_category": "OIL", "nameplate_mw": 8.4, "annual_net_gen_mwh": 0.0}, {"oris_code": 70, "plant_name": "Swan Lake", "latitude": 55.615208, "longitude": -131.356111, "primary_fuel": "WAT", "primary_fuel_category": "HYDRO", "nameplate_mw": 22.6, "annual_net_gen_mwh": 70593.0}, {"oris_code": 58278, "plant_name": "TNSG North Plant", "latitude": 70.235278, "longitude": -148.383611, "primary_fuel": "NG", "primary_fuel_category": "GAS", "nameplate_mw": 25.7, "annual_net_gen_mwh": 50476.0}, {"oris_code": 58117, "plant_name": "TNSG South Plant", "latitude": 70.2, "longitude": -148.466667, "primary_fuel": "NG", "primary_fuel_category": "GAS", "nameplate_mw": 7.8, "annual_net_gen_mwh": -324.999}, {"oris_code": 71, "plant_name": "Terror Lake Microgrid", "latitude": 57.6861, "longitude": -152.895, "primary_fuel": "WAT", "primary_fuel_category": "HYDRO", "nameplate_mw": 33.6, "annual_net_gen_mwh": 137666.001}, {"oris_code": 52184, "plant_name": "Tesoro Kenai Cogeneration Plant", "latitude": 60.677, "longitude": -151.3815, "primary_fuel": "NG", "primary_fuel_category": "GAS", "nameplate_mw": 8.6, "annual_net_gen_mwh": 69211.0}, {"oris_code": 7414, "plant_name": "Thorne Bay Plant", "latitude": 55.68586, "longitude": -132.52892, "primary_fuel": "DFO", "primary_fuel_category": "OIL", "nameplate_mw": 1.0, "annual_net_gen_mwh": 0.0}, {"oris_code": 6348, "plant_name": "Togiak", "latitude": 59.059744, "longitude": -160.380278, "primary_fuel": "DFO", "primary_fuel_category": "OIL", "nameplate_mw": 2.8, "annual_net_gen_mwh": 3159.001}, {"oris_code": 406, "plant_name": "Tok", "latitude": 63.33552, "longitude": -142.99997, "primary_fuel": "DFO", "primary_fuel_category": "OIL", "nameplate_mw": 7.8, "annual_net_gen_mwh": 11287.0}, {"oris_code": 57067, "plant_name": "Toksook Bay", "latitude": 60.530142, "longitude": -165.108575, "primary_fuel": "DFO", "primary_fuel_category": "OIL", "nameplate_mw": 2.1, "annual_net_gen_mwh": 3854.999}, {"oris_code": 61166, "plant_name": "Tyee Lake Hydroelectric Facility", "latitude": 56.216403, "longitude": -131.504344, "primary_fuel": "WAT", "primary_fuel_category": "HYDRO", "nameplate_mw": 22.6, "annual_net_gen_mwh": 119089.0}, {"oris_code": 6299, "plant_name": "Unalakleet", "latitude": 63.876789, "longitude": -160.790414, "primary_fuel": "DFO", "primary_fuel_category": "OIL", "nameplate_mw": 2.0, "annual_net_gen_mwh": 3037.0}, {"oris_code": 7503, "plant_name": "Unalaska Power Module", "latitude": 53.863993, "longitude": -166.512591, "primary_fuel": "DFO", "primary_fuel_category": "OIL", "nameplate_mw": 1.1, "annual_net_gen_mwh": 33.0}, {"oris_code": 54422, "plant_name": "Unisea G 2", "latitude": 53.8796, "longitude": -166.5532, "primary_fuel": "DFO", "primary_fuel_category": "OIL", "nameplate_mw": 17.5, "annual_net_gen_mwh": 29613.001}, {"oris_code": 50711, "plant_name": "University of Alaska Fairbanks", "latitude": 64.854171, "longitude": -147.822075, "primary_fuel": "SUB", "primary_fuel_category": "COAL", "nameplate_mw": 39.6, "annual_net_gen_mwh": 68556.778}, {"oris_code": 57054, "plant_name": "Upper Kalskag", "latitude": 61.526858, "longitude": -160.348128, "primary_fuel": "DFO", "primary_fuel_category": "OIL", "nameplate_mw": 1.1, "annual_net_gen_mwh": 1515.0}, {"oris_code": 50308, "plant_name": "Utility Plants Section", "latitude": 64.825601, "longitude": -147.648627, "primary_fuel": "SUB", "primary_fuel_category": "COAL", "nameplate_mw": 20.0, "annual_net_gen_mwh": 64020.0}, {"oris_code": 6306, "plant_name": "Valdez", "latitude": 61.1303, "longitude": -146.3647, "primary_fuel": "DFO", "primary_fuel_category": "OIL", "nameplate_mw": 8.6, "annual_net_gen_mwh": 8704.001}, {"oris_code": 7841, "plant_name": "Valdez Cogen", "latitude": 61.0839, "longitude": -146.2529, "primary_fuel": "WO", "primary_fuel_category": "OIL", "nameplate_mw": 5.3, "annual_net_gen_mwh": 24008.0}, {"oris_code": 56147, "plant_name": "Viking", "latitude": 55.540708, "longitude": -133.102344, "primary_fuel": "DFO", "primary_fuel_category": "OIL", "nameplate_mw": 1.0, "annual_net_gen_mwh": NaN}, {"oris_code": 54305, "plant_name": "Westward Seafoods", "latitude": 53.858508, "longitude": -166.55288, "primary_fuel": "DFO", "primary_fuel_category": "OIL", "nameplate_mw": 6.6, "annual_net_gen_mwh": 18573.519}, {"oris_code": 58977, "plant_name": "Whitman", "latitude": 55.328056, "longitude": -131.530833, "primary_fuel": "WAT", "primary_fuel_category": "HYDRO", "nameplate_mw": 4.8, "annual_net_gen_mwh": 10557.0}, {"oris_code": 95, "plant_name": "Wrangell", "latitude": 56.460976, "longitude": -132.379439, "primary_fuel": "DFO", "primary_fuel_category": "OIL", "nameplate_mw": 12.0, "annual_net_gen_mwh": 889.999}, {"oris_code": 6637, "plant_name": "Yakutat", "latitude": 59.544553, "longitude": -139.724306, "primary_fuel": "DFO", "primary_fuel_category": "OIL", "nameplate_mw": 3.8, "annual_net_gen_mwh": 6238.0}, {"oris_code": 56076, "plant_name": "ABC Coke", "latitude": 33.582793, "longitude": -86.779866, "primary_fuel": "NG", "primary_fuel_category": "GAS", "nameplate_mw": 3.8, "annual_net_gen_mwh": 83.0}, {"oris_code": 56018, "plant_name": "AMEA Sylacauga Plant", "latitude": 33.1661, "longitude": -86.2825, "primary_fuel": "NG", "primary_fuel_category": "GAS", "nameplate_mw": 98.6, "annual_net_gen_mwh": 46300.0}, {"oris_code": 60680, "plant_name": "ANAD Solar Array", "latitude": 33.626728, "longitude": -85.969481, "primary_fuel": "SUN", "primary_fuel_category": "SOLAR", "nameplate_mw": 7.4, "annual_net_gen_mwh": 10742.0}, {"oris_code": 54429, "plant_name": "Alabama Pine Pulp", "latitude": 31.5825, "longitude": -87.4889, "primary_fuel": "BLQ", "primary_fuel_category": "BIOMASS", "nameplate_mw": 69.0, "annual_net_gen_mwh": 388270.42}, {"oris_code": 10216, "plant_name": "Alabama River Pulp", "latitude": 31.5825, "longitude": -87.4889, "primary_fuel": "BLQ", "primary_fuel_category": "BIOMASS", "nameplate_mw": 48.0, "annual_net_gen_mwh": 302916.07}, {"oris_code": 7924, "plant_name": "Albertville", "latitude": 34.363389, "longitude": -86.223889, "primary_fuel": "DFO", "primary_fuel_category": "OIL", "nameplate_mw": 4.0, "annual_net_gen_mwh": 0.0}, {"oris_code": 2, "plant_name": "Bankhead Dam", "latitude": 33.458665, "longitude": -87.356823, "primary_fuel": "WAT", "primary_fuel_category": "HYDRO", "nameplate_mw": 53.9, "annual_net_gen_mwh": 138682.0}, {"oris_code": 3, "plant_name": "Barry", "latitude": 31.0069, "longitude": -88.0103, "primary_fuel": "NG", "primary_fuel_category": "GAS", "nameplate_mw": 3343.5, "annual_net_gen_mwh": 8675796.001}, {"oris_code": 702, "plant_name": "Bartletts Ferry", "latitude": 32.663, "longitude": -85.0908, "primary_fuel": "WAT", "primary_fuel_category": "HYDRO", "nameplate_mw": 173.0, "annual_net_gen_mwh": 396970.0}, {"oris_code": 6150, "plant_name": "Bellefonte", "latitude": 34.7092, "longitude": -85.9278, "primary_fuel": "DFO", "primary_fuel_category": "OIL", "nameplate_mw": 14.0, "annual_net_gen_mwh": NaN}, {"oris_code": 63765, "plant_name": "Black Bear Solar 1", "latitude": 32.196971, "longitude": -86.327341, "primary_fuel": "SUN", "primary_fuel_category": "SOLAR", "nameplate_mw": 100.0, "annual_net_gen_mwh": 201925.0}, {"oris_code": 46, "plant_name": "Browns Ferry", "latitude": 34.7042, "longitude": -87.1189, "primary_fuel": "NUC", "primary_fuel_category": "NUCLEAR", "nameplate_mw": 3854.0, "annual_net_gen_mwh": 30820509.999}, {"oris_code": 55409, "plant_name": "Calhoun Generating Facility", "latitude": 33.5883, "longitude": -85.9731, "primary_fuel": "NG", "primary_fuel_category": "GAS", "nameplate_mw": 748.0, "annual_net_gen_mwh": 25537.0}, {"oris_code": 55440, "plant_name": "Central Alabama Gen Station", "latitude": 32.6497, "longitude": -86.74, "primary_fuel": "NG", "primary_fuel_category": "GAS", "nameplate_mw": 927.1, "annual_net_gen_mwh": 4769712.0}, {"oris_code": 56, "plant_name": "Charles R Lowman", "latitude": 31.488019, "longitude": -87.910747, "primary_fuel": "NG", "primary_fuel_category": "GAS", "nameplate_mw": 732.7, "annual_net_gen_mwh": 1341342.0}, {"oris_code": 47, "plant_name": "Colbert", "latitude": 34.7439, "longitude": -87.8486, "primary_fuel": "NG", "primary_fuel_category": "GAS", "nameplate_mw": 1169.6, "annual_net_gen_mwh": 78686.003}, {"oris_code": 54985, "plant_name": "Crestwood Dothan", "latitude": 31.262356, "longitude": -85.402737, "primary_fuel": "DFO", "primary_fuel_category": "OIL", "nameplate_mw": 8.6, "annual_net_gen_mwh": NaN}, {"oris_code": 61924, "plant_name": "Cumblerland Land Holdings, LLC", "latitude": 34.94974, "longitude": -86.868053, "primary_fuel": "SUN", "primary_fuel_category": "SOLAR", "nameplate_mw": 14.7, "annual_net_gen_mwh": 28614.0}, {"oris_code": 55292, "plant_name": "Decatur Energy Center", "latitude": 34.6292, "longitude": -87.0214, "primary_fuel": "NG", "primary_fuel_category": "GAS", "nameplate_mw": 902.4, "annual_net_gen_mwh": 2124846.0}, {"oris_code": 58061, "plant_name": "Decatur-Morgan Co LFG Recovery Project", "latitude": 34.623611, "longitude": -87.101111, "primary_fuel": "LFG", "primary_fuel_category": "BIOMASS", "nameplate_mw": 1.6, "annual_net_gen_mwh": 10736.0}, {"oris_code": 7897, "plant_name": "E B Harris Generating Plant", "latitude": 32.381352, "longitude": -86.574366, "primary_fuel": "NG", "primary_fuel_category": "GAS", "nameplate_mw": 1304.0, "annual_net_gen_mwh": 6460477.0}, {"oris_code": 26, "plant_name": "E C Gaston", "latitude": 33.244211, "longitude": -86.458056, "primary_fuel": "BIT", "primary_fuel_category": "COAL", "nameplate_mw": 2034.0, "annual_net_gen_mwh": 3399765.0}, {"oris_code": 60679, "plant_name": "Fort Rucker Solar Array", "latitude": 31.331148, "longitude": -85.73019, "primary_fuel": "SUN", "primary_fuel_category": "SOLAR", "nameplate_mw": 10.6, "annual_net_gen_mwh": 13869.0}, {"oris_code": 53, "plant_name": "Gantt", "latitude": 31.4033, "longitude": -86.479469, "primary_fuel": "WAT", "primary_fuel_category": "HYDRO", "nameplate_mw": 3.0, "annual_net_gen_mwh": 4518.0}, {"oris_code": 54789, "plant_name": "Georgia-Pacific Brewton Mill", "latitude": 31.077, "longitude": -87.1116, "primary_fuel": "BLQ", "primary_fuel_category": "BIOMASS", "nameplate_mw": 103.4, "annual_net_gen_mwh": 490545.251}, {"oris_code": 10699, "plant_name": "Georgia-Pacific Consr Prods LP-Naheola", "latitude": 32.2268, "longitude": -88.0252, "primary_fuel": "BLQ", "primary_fuel_category": "BIOMASS", "nameplate_mw": 87.5, "annual_net_gen_mwh": 283727.0}, {"oris_code": 707, "plant_name": "Goat Rock", "latitude": 32.6096, "longitude": -85.0795, "primary_fuel": "WAT", "primary_fuel_category": "HYDRO", "nameplate_mw": 38.6, "annual_net_gen_mwh": 99370.002}, {"oris_code": 10, "plant_name": "Greene County", "latitude": 32.6017, "longitude": -87.7811, "primary_fuel": "NG", "primary_fuel_category": "GAS", "nameplate_mw": 1288.4, "annual_net_gen_mwh": 1396260.002}, {"oris_code": 48, "plant_name": "Guntersville", "latitude": 34.421272, "longitude": -86.393931, "primary_fuel": "WAT", "primary_fuel_category": "HYDRO", "nameplate_mw": 115.2, "annual_net_gen_mwh": 453373.0}, {"oris_code": 11, "plant_name": "H Neely Henry Dam", "latitude": 33.7845, "longitude": -86.0524, "primary_fuel": "WAT", "primary_fuel_category": "HYDRO", "nameplate_mw": 72.9, "annual_net_gen_mwh": 196724.001}, {"oris_code": 6188, "plant_name": "Harris Dam", "latitude": 33.258281, "longitude": -85.616047, "primary_fuel": "WAT", "primary_fuel_category": "HYDRO", "nameplate_mw": 135.0, "annual_net_gen_mwh": 128932.0}, {"oris_code": 55411, "plant_name": "Hillabee Energy Center", "latitude": 33.000669, "longitude": -85.903278, "primary_fuel": "NG", "primary_fuel_category": "GAS", "nameplate_mw": 822.8, "annual_net_gen_mwh": 4078887.0}, {"oris_code": 55241, "plant_name": "Hog Bayou Energy Center", "latitude": 30.7478, "longitude": -88.0575, "primary_fuel": "NG", "primary_fuel_category": "GAS", "nameplate_mw": 280.0, "annual_net_gen_mwh": 1510597.0}, {"oris_code": 12, "plant_name": "Holt Dam", "latitude": 33.2553, "longitude": -87.4495, "primary_fuel": "WAT", "primary_fuel_category": "HYDRO", "nameplate_mw": 46.9, "annual_net_gen_mwh": 154493.0}, {"oris_code": 54752, "plant_name": "International Paper Pine Hill Mill", "latitude": 31.9698, "longitude": -87.4806, "primary_fuel": "BLQ", "primary_fuel_category": "BIOMASS", "nameplate_mw": 77.4, "annual_net_gen_mwh": 448819.0}, {"oris_code": 52140, "plant_name": "International Paper Prattville Mill", "latitude": 32.4187, "longitude": -86.4718, "primary_fuel": "BLQ", "primary_fuel_category": "BIOMASS", "nameplate_mw": 89.8, "annual_net_gen_mwh": 610729.26}, {"oris_code": 54096, "plant_name": "International Paper Riverdale Mill", "latitude": 32.426016, "longitude": -86.870912, "primary_fuel": "NG", "primary_fuel_category": "GAS", "nameplate_mw": 104.2, "annual_net_gen_mwh": 462678.301}, {"oris_code": 6002, "plant_name": "James H Miller Jr", "latitude": 33.6319, "longitude": -87.0597, "primary_fuel": "SUB", "primary_fuel_category": "COAL", "nameplate_mw": 2822.0, "annual_net_gen_mwh": 15846086.0}, {"oris_code": 6131, "plant_name": "Jones Bluff", "latitude": 32.324242, "longitude": -86.784319, "primary_fuel": "WAT", "primary_fuel_category": "HYDRO", "nameplate_mw": 82.0, "annual_net_gen_mwh": 267212.0}, {"oris_code": 13, "plant_name": "Jordan Dam", "latitude": 32.6189, "longitude": -86.2548, "primary_fuel": "WAT", "primary_fuel_category": "HYDRO", "nameplate_mw": 100.0, "annual_net_gen_mwh": 263302.0}, {"oris_code": 6001, "plant_name": "Joseph M Farley", "latitude": 31.2231, "longitude": -85.1116, "primary_fuel": "NUC", "primary_fuel_category": "NUCLEAR", "nameplate_mw": 1776.4, "annual_net_gen_mwh": 14758529.0}, {"oris_code": 62449, "plant_name": "Kimberly Clark Mobile - CHP Plant", "latitude": 30.737741, "longitude": -88.04977, "primary_fuel": "NG", "primary_fuel_category": "GAS", "nameplate_mw": 50.0, "annual_net_gen_mwh": 365514.52}, {"oris_code": 60583, "plant_name": "LaFayette Solar Farm", "latitude": 32.876313, "longitude": -85.38821, "primary_fuel": "SUN", "primary_fuel_category": "SOLAR", "nameplate_mw": 79.2, "annual_net_gen_mwh": 164839.0}, {"oris_code": 15, "plant_name": "Lay Dam", "latitude": 32.9633, "longitude": -86.5187, "primary_fuel": "WAT", "primary_fuel_category": "HYDRO", "nameplate_mw": 177.0, "annual_net_gen_mwh": 454677.0}, {"oris_code": 18, "plant_name": "Lewis Smith Dam", "latitude": 33.9406, "longitude": -87.1077, "primary_fuel": "WAT", "primary_fuel_category": "HYDRO", "nameplate_mw": 181.0, "annual_net_gen_mwh": 233391.0}, {"oris_code": 14, "plant_name": "Logan Martin Dam", "latitude": 33.425878, "longitude": -86.337547, "primary_fuel": "WAT", "primary_fuel_category": "HYDRO", "nameplate_mw": 128.1, "annual_net_gen_mwh": 343509.0}, {"oris_code": 16, "plant_name": "Martin Dam", "latitude": 32.680394, "longitude": -85.911442, "primary_fuel": "WAT", "primary_fuel_category": "HYDRO", "nameplate_mw": 210.6, "annual_net_gen_mwh": 326569.999}, {"oris_code": 7063, "plant_name": "McIntosh (7063)", "latitude": 31.2546, "longitude": -88.0299, "primary_fuel": "NG", "primary_fuel_category": "GAS", "nameplate_mw": 676.0, "annual_net_gen_mwh": 745690.998}, {"oris_code": 533, "plant_name": "McWilliams", "latitude": 31.400255, "longitude": -86.476449, "primary_fuel": "NG", "primary_fuel_category": "GAS", "nameplate_mw": 654.0, "annual_net_gen_mwh": 3342941.0}, {"oris_code": 54802, "plant_name": "Mead Coated Board", "latitude": 32.1761, "longitude": -85.0272, "primary_fuel": "BLQ", "primary_fuel_category": "BIOMASS", "nameplate_mw": 120.5, "annual_net_gen_mwh": 705660.0}, {"oris_code": 38, "plant_name": "Millers Ferry", "latitude": 32.100881, "longitude": -87.399767, "primary_fuel": "WAT", "primary_fuel_category": "HYDRO", "nameplate_mw": 101.1, "annual_net_gen_mwh": 315281.001}, {"oris_code": 17, "plant_name": "Mitchell Dam", "latitude": 32.806025, "longitude": -86.444892, "primary_fuel": "WAT", "primary_fuel_category": "HYDRO", "nameplate_mw": 170.0, "annual_net_gen_mwh": 409418.001}, {"oris_code": 55293, "plant_name": "Morgan Energy Center", "latitude": 34.6397, "longitude": -87.0639, "primary_fuel": "NG", "primary_fuel_category": "GAS", "nameplate_mw": 900.0, "annual_net_gen_mwh": 5422456.0}, {"oris_code": 62462, "plant_name": "Muscle Shoals", "latitude": 34.76973, "longitude": -87.90454, "primary_fuel": "SUN", "primary_fuel_category": "SOLAR", "nameplate_mw": 227.0, "annual_net_gen_mwh": 448853.42}, {"oris_code": 64469, "plant_name": "OE_ALD", "latitude": 31.007777, "longitude": -86.59194, "primary_fuel": "SUN", "primary_fuel_category": "SOLAR", "nameplate_mw": 80.0, "annual_net_gen_mwh": 163033.0}, {"oris_code": 55044, "plant_name": "Packaging Corp. of America Jackson Mill", "latitude": 31.4894, "longitude": -87.8989, "primary_fuel": "BLQ", "primary_fuel_category": "BIOMASS", "nameplate_mw": 44.4, "annual_net_gen_mwh": 158420.692}, {"oris_code": 7710, "plant_name": "Plant H. Allen Franklin", "latitude": 32.6078, "longitude": -85.0975, "primary_fuel": "NG", "primary_fuel_category": "GAS", "nameplate_mw": 1995.7, "annual_net_gen_mwh": 13682165.0}, {"oris_code": 55, "plant_name": "Point A", "latitude": 31.361146, "longitude": -86.518307, "primary_fuel": "WAT", "primary_fuel_category": "HYDRO", "nameplate_mw": 5.2, "annual_net_gen_mwh": 16133.0}, {"oris_code": 61901, "plant_name": "Redstone Arsenal Hybrid", "latitude": 34.610987, "longitude": -86.611551, "primary_fuel": "SUN", "primary_fuel_category": "SOLAR", "nameplate_mw": 11.0, "annual_net_gen_mwh": 15523.0}, {"oris_code": 60058, "plant_name": "River Bend Solar, LLC", "latitude": 34.831511, "longitude": -87.842204, "primary_fuel": "SUN", "primary_fuel_category": "SOLAR", "nameplate_mw": 75.0, "annual_net_gen_mwh": 153231.0}, {"oris_code": 7698, "plant_name": "SABIC Innovative Plastics - Burkville", "latitude": 32.310226, "longitude": -86.52542, "primary_fuel": "NG", "primary_fuel_category": "GAS", "nameplate_mw": 97.0, "annual_net_gen_mwh": 514101.0}, {"oris_code": 59710, "plant_name": "Sand Valley Power Station", "latitude": 34.343875, "longitude": -85.866103, "primary_fuel": "LFG", "primary_fuel_category": "BIOMASS", "nameplate_mw": 4.8, "annual_net_gen_mwh": 30626.001}, {"oris_code": 50359, "plant_name": "Sloss Industries Corp", "latitude": 33.568164, "longitude": -86.79873, "primary_fuel": "NG", "primary_fuel_category": "GAS", "nameplate_mw": 25.0, "annual_net_gen_mwh": 0.0}, {"oris_code": 55271, "plant_name": "Tenaska Lindsay Hill Generating Station", "latitude": 32.6514, "longitude": -86.7386, "primary_fuel": "NG", "primary_fuel_category": "GAS", "nameplate_mw": 939.4, "annual_net_gen_mwh": 2712170.0}, {"oris_code": 7721, "plant_name": "Theodore Cogeneration", "latitude": 30.525445, "longitude": -88.128477, "primary_fuel": "NG", "primary_fuel_category": "GAS", "nameplate_mw": 317.4, "annual_net_gen_mwh": 1584807.0}, {"oris_code": 19, "plant_name": "Thurlow Dam", "latitude": 32.535436, "longitude": -85.887614, "primary_fuel": "WAT", "primary_fuel_category": "HYDRO", "nameplate_mw": 91.0, "annual_net_gen_mwh": 222193.999}, {"oris_code": 54216, "plant_name": "U S Alliance Coosa Pines", "latitude": 33.328107, "longitude": -86.356825, "primary_fuel": "BLQ", "primary_fuel_category": "BIOMASS", "nameplate_mw": 25.9, "annual_net_gen_mwh": 139284.0}, {"oris_code": 54550, "plant_name": "W&T Onshore Treating Facility (OTF)", "latitude": 30.43203, "longitude": -88.18241, "primary_fuel": "NG", "primary_fuel_category": "GAS", "nameplate_mw": 12.0, "annual_net_gen_mwh": 47637.0}, {"oris_code": 4, "plant_name": "Walter Bouldin Dam", "latitude": 32.583889, "longitude": -86.283056, "primary_fuel": "WAT", "primary_fuel_category": "HYDRO", "nameplate_mw": 225.0, "annual_net_gen_mwh": 514503.999}, {"oris_code": 55138, "plant_name": "Walton Discover Power Facility", "latitude": 32.54098, "longitude": -85.038879, "primary_fuel": "NG", "primary_fuel_category": "GAS", "nameplate_mw": 103.0, "annual_net_gen_mwh": 195.0}, {"oris_code": 7697, "plant_name": "Washington County Cogen (Olin)", "latitude": 31.26423, "longitude": -88.00267, "primary_fuel": "NG", "primary_fuel_category": "GAS", "nameplate_mw": 122.5, "annual_net_gen_mwh": 862164.0}, {"oris_code": 20, "plant_name": "Weiss Dam", "latitude": 34.172142, "longitude": -85.753806, "primary_fuel": "WAT", "primary_fuel_category": "HYDRO", "nameplate_mw": 87.6, "annual_net_gen_mwh": 183203.001}, {"oris_code": 54763, "plant_name": "WestRock Demopolis Mill", "latitude": 32.4541, "longitude": -87.9759, "primary_fuel": "BLQ", "primary_fuel_category": "BIOMASS", "nameplate_mw": 47.4, "annual_net_gen_mwh": 290729.526}, {"oris_code": 57467, "plant_name": "Westervelt Moundville Cogen", "latitude": 32.960714, "longitude": -87.655419, "primary_fuel": "WDS", "primary_fuel_category": "BIOMASS", "nameplate_mw": 13.0, "annual_net_gen_mwh": 29510.019}, {"oris_code": 49, "plant_name": "Wheeler Dam", "latitude": 34.8069, "longitude": -87.3819, "primary_fuel": "WAT", "primary_fuel_category": "HYDRO", "nameplate_mw": 404.0, "annual_net_gen_mwh": 1072651.997}, {"oris_code": 6440, "plant_name": "Wilson Dam", "latitude": 34.79782, "longitude": -87.62537, "primary_fuel": "WAT", "primary_fuel_category": "HYDRO", "nameplate_mw": 666.7, "annual_net_gen_mwh": 2115835.994}, {"oris_code": 21, "plant_name": "Yates Dam", "latitude": 32.5743, "longitude": -85.8901, "primary_fuel": "WAT", "primary_fuel_category": "HYDRO", "nameplate_mw": 50.5, "annual_net_gen_mwh": 118777.0}, {"oris_code": 7, "plant_name": NaN, "latitude": 34.0128, "longitude": -85.9708, "primary_fuel": "NG", "primary_fuel_category": "GAS", "nameplate_mw": 138.0, "annual_net_gen_mwh": 0.0}, {"oris_code": 67507, "plant_name": "ACC", "latitude": 33.926859, "longitude": -93.860136, "primary_fuel": "SUN", "primary_fuel_category": "SOLAR", "nameplate_mw": 2.0, "annual_net_gen_mwh": 0.0}, {"oris_code": 8055, "plant_name": "Arkansas Nuclear One", "latitude": 35.311, "longitude": -93.2351, "primary_fuel": "NUC", "primary_fuel_category": "NUCLEAR", "nameplate_mw": 1845.0, "annual_net_gen_mwh": 14972481.0}, {"oris_code": 54104, "plant_name": "Ashdown", "latitude": 33.6417, "longitude": -94.1083, "primary_fuel": "BLQ", "primary_fuel_category": "BIOMASS", "nameplate_mw": 156.5, "annual_net_gen_mwh": 496211.939}, {"oris_code": 66588, "plant_name": "Ashley-Chicot Solar", "latitude": 33.250828, "longitude": -91.922427, "primary_fuel": "SUN", "primary_fuel_category": "SOLAR", "nameplate_mw": 1.0, "annual_net_gen_mwh": 2213.0}, {"oris_code": 182, "plant_name": "Beaver Dam", "latitude": 36.421507, "longitude": -93.847373, "primary_fuel": "WAT", "primary_fuel_category": "HYDRO", "nameplate_mw": 112.0, "annual_net_gen_mwh": 117665.0}, {"oris_code": 66589, "plant_name": "Berryville School District Solar", "latitude": 36.37342, "longitude": -93.58618, "primary_fuel": "SUN", "primary_fuel_category": "SOLAR", "nameplate_mw": 1.0, "annual_net_gen_mwh": 1837.0}, {"oris_code": 65483, "plant_name": "Big Cypress Solar, LLC", "latitude": 35.3446, "longitude": -90.3075, "primary_fuel": "SUN", "primary_fuel_category": "SOLAR", "nameplate_mw": 180.0, "annual_net_gen_mwh": 9687.0}, {"oris_code": 197, "plant_name": "Blakely Mountain", "latitude": 34.570984, "longitude": -93.194425, "primary_fuel": "WAT", "primary_fuel_category": "HYDRO", "nameplate_mw": 75.0, "annual_net_gen_mwh": 234890.0}, {"oris_code": 64392, "plant_name": "Branch Solar Farm", "latitude": 35.306183, "longitude": -93.925758, "primary_fuel": "SUN", "primary_fuel_category": "SOLAR", "nameplate_mw": 5.0, "annual_net_gen_mwh": 9911.0}, {"oris_code": 198, "plant_name": "Bull Shoals", "latitude": 36.3635, "longitude": -92.5763, "primary_fuel": "WAT", "primary_fuel_category": "HYDRO", "nameplate_mw": 340.0, "annual_net_gen_mwh": 750451.0}, {"oris_code": 66590, "plant_name": "C&L", "latitude": 34.075486, "longitude": -91.828323, "primary_fuel": "SUN", "primary_fuel_category": "SOLAR", "nameplate_mw": 1.0, "annual_net_gen_mwh": 2200.0}, {"oris_code": 202, "plant_name": "Carl Bailey", "latitude": 35.260102, "longitude": -91.363426, "primary_fuel": "NG", "primary_fuel_category": "GAS", "nameplate_mw": 120.0, "annual_net_gen_mwh": NaN}, {"oris_code": 166, "plant_name": "Carpenter", "latitude": 34.4425, "longitude": -93.0262, "primary_fuel": "WAT", "primary_fuel_category": "HYDRO", "nameplate_mw": 56.0, "annual_net_gen_mwh": 150636.0}, {"oris_code": 63295, "plant_name": "Chicot Solar", "latitude": 33.479, "longitude": -91.349, "primary_fuel": "SUN", "primary_fuel_category": "SOLAR", "nameplate_mw": 100.0, "annual_net_gen_mwh": 205053.0}, {"oris_code": 56505, "plant_name": "City Water & Light - City of Jonesboro", "latitude": 35.848561, "longitude": -90.725377, "primary_fuel": "NG", "primary_fuel_category": "GAS", "nameplate_mw": 224.3, "annual_net_gen_mwh": 84732.999}, {"oris_code": 67514, "plant_name": "City of Green Forest (Carroll)", "latitude": 36.367396, "longitude": -93.542849, "primary_fuel": "SUN", "primary_fuel_category": "SOLAR", "nameplate_mw": 1.2, "annual_net_gen_mwh": 0.0}, {"oris_code": 64444, "plant_name": "City of Paris Solar", "latitude": 35.301, "longitude": -93.734, "primary_fuel": "SUN", "primary_fuel_category": "SOLAR", "nameplate_mw": 1.5, "annual_net_gen_mwh": 2835.0}, {"oris_code": 66607, "plant_name": "Clay County Electrical Cooperative", "latitude": 36.419308, "longitude": -90.64251, "primary_fuel": "SUN", "primary_fuel_category": "SOLAR", "nameplate_mw": 1.0, "annual_net_gen_mwh": 2290.0}, {"oris_code": 50638, "plant_name": "Clearwater Paper APP CB", "latitude": 33.7061, "longitude": -91.2371, "primary_fuel": "BLQ", "primary_fuel_category": "BIOMASS", "nameplate_mw": 28.0, "annual_net_gen_mwh": 110715.0}, {"oris_code": 66608, "plant_name": "Craighead Electric Solar One", "latitude": 35.922262, "longitude": -90.567226, "primary_fuel": "SUN", "primary_fuel_category": "SOLAR", "nameplate_mw": 1.0, "annual_net_gen_mwh": 2315.0}, {"oris_code": 67515, "plant_name": "Crossett SD", "latitude": 33.131191, "longitude": -91.941101, "primary_fuel": "SUN", "primary_fuel_category": "SOLAR", "nameplate_mw": 1.0, "annual_net_gen_mwh": 0.0}, {"oris_code": 7246, "plant_name": "Dam 2", "latitude": 33.986501, "longitude": -91.315788, "primary_fuel": "WAT", "primary_fuel_category": "HYDRO", "nameplate_mw": 102.6, "annual_net_gen_mwh": 342284.001}, {"oris_code": 199, "plant_name": "Dardanelle", "latitude": 35.2503, "longitude": -93.1686, "primary_fuel": "WAT", "primary_fuel_category": "HYDRO", "nameplate_mw": 160.8, "annual_net_gen_mwh": 426200.0}, {"oris_code": 187, "plant_name": "Degray", "latitude": 34.211913, "longitude": -93.110963, "primary_fuel": "WAT", "primary_fuel_category": "HYDRO", "nameplate_mw": 70.0, "annual_net_gen_mwh": 201064.0}, {"oris_code": 55340, "plant_name": "Dell Power Plant", "latitude": 35.8619, "longitude": -90.0253, "primary_fuel": "NG", "primary_fuel_category": "GAS", "nameplate_mw": 679.1, "annual_net_gen_mwh": 4087322.0}, {"oris_code": 56489, "plant_name": "Elkins Generating Center", "latitude": 35.9714, "longitude": -94.0014, "primary_fuel": "NG", "primary_fuel_category": "GAS", "nameplate_mw": 66.0, "annual_net_gen_mwh": 25202.001}, {"oris_code": 7040, "plant_name": "Ellis Hydro", "latitude": 35.351361, "longitude": -94.294349, "primary_fuel": "WAT", "primary_fuel_category": "HYDRO", "nameplate_mw": 32.4, "annual_net_gen_mwh": 123756.0}, {"oris_code": 61839, "plant_name": "FECC Solar Benton", "latitude": 34.638429, "longitude": -92.578347, "primary_fuel": "SUN", "primary_fuel_category": "SOLAR", "nameplate_mw": 1.0, "annual_net_gen_mwh": 1296.49}, {"oris_code": 66610, "plant_name": "Farmers Electric Cooperative", "latitude": 35.629554, "longitude": -91.230511, "primary_fuel": "SUN", "primary_fuel_category": "SOLAR", "nameplate_mw": 1.0, "annual_net_gen_mwh": 2225.0}, {"oris_code": 67518, "plant_name": "Fayetteville Public Schools (Ozarks)", "latitude": 36.004934, "longitude": -94.020522, "primary_fuel": "SUN", "primary_fuel_category": "SOLAR", "nameplate_mw": 1.0, "annual_net_gen_mwh": 0.0}, {"oris_code": 67519, "plant_name": "Fayetteville Public Schools (SWEPCO)", "latitude": 35.147412, "longitude": -93.870856, "primary_fuel": "SUN", "primary_fuel_category": "SOLAR", "nameplate_mw": 4.0, "annual_net_gen_mwh": 0.0}, {"oris_code": 6138, "plant_name": "Flint Creek Power Plant", "latitude": 36.2561, "longitude": -94.5241, "primary_fuel": "SUB", "primary_fuel_category": "COAL", "nameplate_mw": 558.0, "annual_net_gen_mwh": 2065083.0}, {"oris_code": 64262, "plant_name": "Forrest City- Eldridge Road", "latitude": 35.03789, "longitude": -90.80707, "primary_fuel": "SUN", "primary_fuel_category": "SOLAR", "nameplate_mw": 1.0, "annual_net_gen_mwh": 2110.0}, {"oris_code": 64261, "plant_name": "Forrest City- Prison Site", "latitude": 34.97953, "longitude": -90.80602, "primary_fuel": "SUN", "primary_fuel_category": "SOLAR", "nameplate_mw": 1.0, "annual_net_gen_mwh": 2066.0}, {"oris_code": 10050, "plant_name": "Fourche Creek Wastewater", "latitude": 34.6968, "longitude": -92.165, "primary_fuel": "OBG", "primary_fuel_category": "BIOMASS", "nameplate_mw": 1.3, "annual_net_gen_mwh": 0.0}, {"oris_code": 7825, "plant_name": "Fulton", "latitude": 33.6094, "longitude": -93.7924, "primary_fuel": "NG", "primary_fuel_category": "GAS", "nameplate_mw": 154.8, "annual_net_gen_mwh": 148802.0}, {"oris_code": 65351, "plant_name": "General Dynamics", "latitude": 33.602, "longitude": -92.541, "primary_fuel": "SUN", "primary_fuel_category": "SOLAR", "nameplate_mw": 2.0, "annual_net_gen_mwh": 3373.0}, {"oris_code": 10606, "plant_name": "Georgia-Pacific Crossett LLC", "latitude": 33.1421, "longitude": -91.975, "primary_fuel": "NG", "primary_fuel_category": "GAS", "nameplate_mw": 25.0, "annual_net_gen_mwh": 6407.122}, {"oris_code": 188, "plant_name": "Greers Ferry Lake", "latitude": 35.5207, "longitude": -91.9953, "primary_fuel": "WAT", "primary_fuel_category": "HYDRO", "nameplate_mw": 96.0, "annual_net_gen_mwh": 209665.0}, {"oris_code": 63766, "plant_name": "Happy Solar 1", "latitude": 35.167715, "longitude": -91.660279, "primary_fuel": "SUN", "primary_fuel_category": "SOLAR", "nameplate_mw": 95.0, "annual_net_gen_mwh": 34851.0}, {"oris_code": 56328, "plant_name": "Harry D. Mattison Power Plant", "latitude": 36.1855, "longitude": -94.2841, "primary_fuel": "NG", "primary_fuel_category": "GAS", "nameplate_mw": 349.0, "annual_net_gen_mwh": 177190.0}, {"oris_code": 55418, "plant_name": "Hot Spring Energy Facility", "latitude": 34.29759, "longitude": -92.868344, "primary_fuel": "NG", "primary_fuel_category": "GAS", "nameplate_mw": 714.8, "annual_net_gen_mwh": 2172773.0}, {"oris_code": 64263, "plant_name": "Hot Springs 2020", "latitude": 34.421, "longitude": -93.19485, "primary_fuel": "SUN", "primary_fuel_category": "SOLAR", "nameplate_mw": 1.0, "annual_net_gen_mwh": 1683.0}, {"oris_code": 6641, "plant_name": "Independence", "latitude": 35.678442, "longitude": -91.408761, "primary_fuel": "SUB", "primary_fuel_category": "COAL", "nameplate_mw": 1800.0, "annual_net_gen_mwh": 4743250.0}, {"oris_code": 56564, "plant_name": "John W. Turk Jr. Power Plant", "latitude": 33.649722, "longitude": -93.811944, "primary_fuel": "SUB", "primary_fuel_category": "COAL", "nameplate_mw": 609.0, "annual_net_gen_mwh": 3112401.0}, {"oris_code": 67487, "plant_name": "Jonesboro CWL Solar Park", "latitude": 35.814274, "longitude": -90.578666, "primary_fuel": "SUN", "primary_fuel_category": "SOLAR", "nameplate_mw": 10.0, "annual_net_gen_mwh": 0.0}, {"oris_code": 67520, "plant_name": "LRWRA", "latitude": 35.147412, "longitude": -93.870856, "primary_fuel": "SUN", "primary_fuel_category": "SOLAR", "nameplate_mw": 4.0, "annual_net_gen_mwh": 0.0}, {"oris_code": 170, "plant_name": "Lake Catherine", "latitude": 34.4341, "longitude": -92.9049, "primary_fuel": "NG", "primary_fuel_category": "GAS", "nameplate_mw": 552.5, "annual_net_gen_mwh": 169122.0}, {"oris_code": 54283, "plant_name": "Lee Creek Water Treatment Facility", "latitude": 35.484488, "longitude": -94.392858, "primary_fuel": "WAT", "primary_fuel_category": "HYDRO", "nameplate_mw": 1.3, "annual_net_gen_mwh": 0.0}, {"oris_code": 55714, "plant_name": "Magnet Cove Generating Station", "latitude": 34.4297, "longitude": -92.8317, "primary_fuel": "NG", "primary_fuel_category": "GAS", "nameplate_mw": 746.0, "annual_net_gen_mwh": 3377782.0}, {"oris_code": 203, "plant_name": "McClellan", "latitude": 33.5648, "longitude": -92.7917, "primary_fuel": "NG", "primary_fuel_category": "GAS", "nameplate_mw": 136.0, "annual_net_gen_mwh": 41108.0}, {"oris_code": 193, "plant_name": "Municipal Light", "latitude": 36.3858, "longitude": -90.1867, "primary_fuel": "DFO", "primary_fuel_category": "OIL", "nameplate_mw": 7.2, "annual_net_gen_mwh": 0.0}, {"oris_code": 7166, "plant_name": "Murray", "latitude": 34.7956, "longitude": -92.3569, "primary_fuel": "WAT", "primary_fuel_category": "HYDRO", "nameplate_mw": 45.4, "annual_net_gen_mwh": 142385.0}, {"oris_code": 195, "plant_name": "Narrows (AR)", "latitude": 34.148427, "longitude": -93.715168, "primary_fuel": "WAT", "primary_fuel_category": "HYDRO", "nameplate_mw": 25.5, "annual_net_gen_mwh": 46682.001}, {"oris_code": 66112, "plant_name": "Newport Solar Project", "latitude": 35.668902, "longitude": -91.187108, "primary_fuel": "SUN", "primary_fuel_category": "SOLAR", "nameplate_mw": 180.0, "annual_net_gen_mwh": 80876.0}, {"oris_code": 62682, "plant_name": "Noland Wastewater Treatment Plant Hybrid", "latitude": 36.082301, "longitude": -94.067149, "primary_fuel": "SUN", "primary_fuel_category": "SOLAR", "nameplate_mw": 11.0, "annual_net_gen_mwh": 8381.0}, {"oris_code": 196, "plant_name": "Norfork", "latitude": 36.2491, "longitude": -92.2401, "primary_fuel": "WAT", "primary_fuel_category": "HYDRO", "nameplate_mw": 80.4, "annual_net_gen_mwh": 99274.0}, {"oris_code": 172, "plant_name": "Osceola (AR)", "latitude": 35.705381, "longitude": -89.9689, "primary_fuel": "DFO", "primary_fuel_category": "OIL", "nameplate_mw": 1.6, "annual_net_gen_mwh": 0.0}, {"oris_code": 55221, "plant_name": "Oswald Generating Station", "latitude": 34.5923, "longitude": -92.2166, "primary_fuel": "NG", "primary_fuel_category": "GAS", "nameplate_mw": 599.5, "annual_net_gen_mwh": 941018.0}, {"oris_code": 6142, "plant_name": "Ozark", "latitude": 35.4693, "longitude": -93.8175, "primary_fuel": "WAT", "primary_fuel_category": "HYDRO", "nameplate_mw": 100.0, "annual_net_gen_mwh": 253118.0}, {"oris_code": 60924, "plant_name": "Ozarks Natural Energy Community Solar", "latitude": 36.164296, "longitude": -94.082269, "primary_fuel": "SUN", "primary_fuel_category": "SOLAR", "nameplate_mw": 1.0, "annual_net_gen_mwh": 1340.0}, {"oris_code": 8015, "plant_name": "Paragould Reciprocating", "latitude": 36.0242, "longitude": -90.5094, "primary_fuel": "NG", "primary_fuel_category": "GAS", "nameplate_mw": 19.2, "annual_net_gen_mwh": 648.999}, {"oris_code": 67188, "plant_name": "Paragould Solar Farm", "latitude": 36.025675, "longitude": -90.48805, "primary_fuel": "SUN", "primary_fuel_category": "SOLAR", "nameplate_mw": 1.5, "annual_net_gen_mwh": 3258.0}, {"oris_code": 7283, "plant_name": "Paragould Turbine", "latitude": 36.024272, "longitude": -90.509229, "primary_fuel": "NG", "primary_fuel_category": "GAS", "nameplate_mw": 13.9, "annual_net_gen_mwh": 161.0}, {"oris_code": 55075, "plant_name": "Pine Bluff Energy Center", "latitude": 34.2181, "longitude": -91.9025, "primary_fuel": "NG", "primary_fuel_category": "GAS", "nameplate_mw": 230.4, "annual_net_gen_mwh": 1213353.0}, {"oris_code": 10627, "plant_name": "Pine Bluff Mill", "latitude": 34.221213, "longitude": -91.907365, "primary_fuel": "BLQ", "primary_fuel_category": "BIOMASS", "nameplate_mw": 85.0, "annual_net_gen_mwh": 289037.0}, {"oris_code": 56456, "plant_name": "Plum Point Energy Station", "latitude": 35.6644, "longitude": -89.9489, "primary_fuel": "SUB", "primary_fuel_category": "COAL", "nameplate_mw": 720.0, "annual_net_gen_mwh": 3381761.0}, {"oris_code": 174, "plant_name": "Remmel", "latitude": 34.4272, "longitude": -92.8941, "primary_fuel": "WAT", "primary_fuel_category": "HYDRO", "nameplate_mw": 9.0, "annual_net_gen_mwh": 39660.999}, {"oris_code": 67521, "plant_name": "Rivercrest SD", "latitude": 35.618068, "longitude": -90.104916, "primary_fuel": "SUN", "primary_fuel_category": "SOLAR", "nameplate_mw": 1.0, "annual_net_gen_mwh": 0.0}, {"oris_code": 59947, "plant_name": "SR Camden", "latitude": 33.631538, "longitude": -92.703611, "primary_fuel": "SUN", "primary_fuel_category": "SOLAR", "nameplate_mw": 12.0, "annual_net_gen_mwh": 22053.0}, {"oris_code": 61869, "plant_name": "Scenic Hill Solar III", "latitude": 35.46715, "longitude": -93.51517, "primary_fuel": "SUN", "primary_fuel_category": "SOLAR", "nameplate_mw": 5.0, "annual_net_gen_mwh": 9146.0}, {"oris_code": 63627, "plant_name": "Scenic Hill Solar IV, LLC", "latitude": 35.47056, "longitude": -93.4464, "primary_fuel": "SUN", "primary_fuel_category": "SOLAR", "nameplate_mw": 2.2, "annual_net_gen_mwh": 3952.0}, {"oris_code": 62617, "plant_name": "Searcy Solar Hybrid", "latitude": 35.233, "longitude": -91.69, "primary_fuel": "SUN", "primary_fuel_category": "SOLAR", "nameplate_mw": 110.0, "annual_net_gen_mwh": 209271.0}, {"oris_code": 67522, "plant_name": "Searcy Water I", "latitude": 35.265897, "longitude": -91.715889, "primary_fuel": "SUN", "primary_fuel_category": "SOLAR", "nameplate_mw": 1.0, "annual_net_gen_mwh": 0.0}, {"oris_code": 67523, "plant_name": "Searcy Water II", "latitude": 35.207905, "longitude": -91.722163, "primary_fuel": "SUN", "primary_fuel_category": "SOLAR", "nameplate_mw": 2.8, "annual_net_gen_mwh": 0.0}, {"oris_code": 67524, "plant_name": "Southside SD", "latitude": 34.724417, "longitude": -92.196797, "primary_fuel": "SUN", "primary_fuel_category": "SOLAR", "nameplate_mw": 1.0, "annual_net_gen_mwh": 0.0}, {"oris_code": 61262, "plant_name": "Stuttgart Solar", "latitude": 34.439722, "longitude": -91.44, "primary_fuel": "SUN", "primary_fuel_category": "SOLAR", "nameplate_mw": 81.0, "annual_net_gen_mwh": 163168.0}, {"oris_code": 201, "plant_name": "Thomas Fitzhugh", "latitude": 35.462382, "longitude": -93.804926, "primary_fuel": "NG", "primary_fuel_category": "GAS", "nameplate_mw": 185.0, "annual_net_gen_mwh": 404531.0}, {"oris_code": 56523, "plant_name": "Two Pine Landfill Gas Recovery", "latitude": 34.8332, "longitude": -92.157103, "primary_fuel": "LFG", "primary_fuel_category": "BIOMASS", "nameplate_mw": 4.8, "annual_net_gen_mwh": 26514.0}, {"oris_code": 60536, "plant_name": "UA Central Utility Plant", "latitude": 36.066336, "longitude": -94.172254, "primary_fuel": "NG", "primary_fuel_category": "GAS", "nameplate_mw": 5.6, "annual_net_gen_mwh": 37461.0}, {"oris_code": 67526, "plant_name": "UADA", "latitude": 33.926582, "longitude": -93.858865, "primary_fuel": "SUN", "primary_fuel_category": "SOLAR", "nameplate_mw": 2.8, "annual_net_gen_mwh": 0.0}, {"oris_code": 55380, "plant_name": "Union Power Station", "latitude": 33.296146, "longitude": -92.589364, "primary_fuel": "NG", "primary_fuel_category": "GAS", "nameplate_mw": 2428.0, "annual_net_gen_mwh": 13416477.0}, {"oris_code": 57025, "plant_name": "Waste Management Eco Vista LFGTE", "latitude": 36.140849, "longitude": -94.259713, "primary_fuel": "NG", "primary_fuel_category": "GAS", "nameplate_mw": 0.8, "annual_net_gen_mwh": 6910.0}, {"oris_code": 62683, "plant_name": "Westside Wastewater Treatment Plant Hybrid", "latitude": 36.04135, "longitude": -94.140079, "primary_fuel": "SUN", "primary_fuel_category": "SOLAR", "nameplate_mw": 11.0, "annual_net_gen_mwh": 9638.0}, {"oris_code": 7135, "plant_name": "Whillock", "latitude": 35.127591, "longitude": -92.790273, "primary_fuel": "WAT", "primary_fuel_category": "HYDRO", "nameplate_mw": 32.4, "annual_net_gen_mwh": 135278.001}, {"oris_code": 6009, "plant_name": "White Bluff", "latitude": 34.4228, "longitude": -92.1406, "primary_fuel": "SUB", "primary_fuel_category": "COAL", "nameplate_mw": 1800.0, "annual_net_gen_mwh": 3560853.0}, {"oris_code": 57160, "plant_name": "White River Lock and Dam 1", "latitude": 35.757401, "longitude": -91.636887, "primary_fuel": "WAT", "primary_fuel_category": "HYDRO", "nameplate_mw": 4.3, "annual_net_gen_mwh": 14073.0}, {"oris_code": 57161, "plant_name": "White River Lock and Dam 2", "latitude": 35.744036, "longitude": -91.765418, "primary_fuel": "WAT", "primary_fuel_category": "HYDRO", "nameplate_mw": 3.5, "annual_net_gen_mwh": 14074.0}, {"oris_code": 57162, "plant_name": "White River Lock and Dam 3", "latitude": 35.84361, "longitude": -91.850521, "primary_fuel": "WAT", "primary_fuel_category": "HYDRO", "nameplate_mw": 4.3, "annual_net_gen_mwh": 28154.0}, {"oris_code": 67527, "plant_name": "White River Medical Center", "latitude": 35.609774, "longitude": -91.257038, "primary_fuel": "SUN", "primary_fuel_category": "SOLAR", "nameplate_mw": 2.9, "annual_net_gen_mwh": 0.0}, {"oris_code": 61861, "plant_name": "AES ES GILBERT", "latitude": 33.446804, "longitude": -111.956261, "primary_fuel": "MWH", "primary_fuel_category": "OTHF", "nameplate_mw": 10.0, "annual_net_gen_mwh": 0.0}, {"oris_code": 118, "plant_name": "APS Saguaro Power Plant", "latitude": 32.5517, "longitude": -111.3, "primary_fuel": "NG", "primary_fuel_category": "GAS", "nameplate_mw": 184.5, "annual_net_gen_mwh": 175612.0}, {"oris_code": 117, "plant_name": "APS West Phoenix Power Plant", "latitude": 33.4417, "longitude": -112.1583, "primary_fuel": "NG", "primary_fuel_category": "GAS", "nameplate_mw": 1206.8, "annual_net_gen_mwh": 3053387.0}, {"oris_code": 62643, "plant_name": "AZ State University - Tempe Campus Solar", "latitude": 33.424279, "longitude": -111.92822, "primary_fuel": "SUN", "primary_fuel_category": "SOLAR", "nameplate_mw": 2.4, "annual_net_gen_mwh": 2632.998}, {"oris_code": 58632, "plant_name": "Actus Lend Lease DMAFB", "latitude": 32.1825, "longitude": -110.863333, "primary_fuel": "SUN", "primary_fuel_category": "SOLAR", "nameplate_mw": 3.0, "annual_net_gen_mwh": 3029.0}, {"oris_code": 57373, "plant_name": "Agua Caliente Solar Project", "latitude": 32.9774, "longitude": -113.4945, "primary_fuel": "SUN", "primary_fuel_category": "SOLAR", "nameplate_mw": 347.7, "annual_net_gen_mwh": 691333.999}, {"oris_code": 141, "plant_name": "Agua Fria Generating Station", "latitude": 33.5561, "longitude": -112.2153, "primary_fuel": "NG", "primary_fuel_category": "GAS", "nameplate_mw": 737.5, "annual_net_gen_mwh": 152079.999}, {"oris_code": 64384, "plant_name": "Amazon TUS2", "latitude": 32.129416, "longitude": -110.838888, "primary_fuel": "SUN", "primary_fuel_category": "SOLAR", "nameplate_mw": 2.6, "annual_net_gen_mwh": 5282.0}, {"oris_code": 60684, "plant_name": "Amphitheater High School Solar", "latitude": 32.269, "longitude": -110.975, "primary_fuel": "SUN", "primary_fuel_category": "SOLAR", "nameplate_mw": 1.0, "annual_net_gen_mwh": 2030.0}, {"oris_code": 60964, "plant_name": "Apache Solar 1", "latitude": 32.068141, "longitude": -109.890379, "primary_fuel": "SUN", "primary_fuel_category": "SOLAR", "nameplate_mw": 20.0, "annual_net_gen_mwh": 55339.0}, {"oris_code": 160, "plant_name": "Apache Station", "latitude": 32.0603, "longitude": -109.8931, "primary_fuel": "SUB", "primary_fuel_category": "COAL", "nameplate_mw": 660.7, "annual_net_gen_mwh": 1982376.999}, {"oris_code": 58199, "plant_name": "Arizona State University CHP", "latitude": 33.417222, "longitude": -111.928333, "primary_fuel": "NG", "primary_fuel_category": "GAS", "nameplate_mw": 17.1, "annual_net_gen_mwh": 41294.0}, {"oris_code": 57765, "plant_name": "Arizona Western College PV", "latitude": 32.687778, "longitude": -114.49611, "primary_fuel": "SUN", "primary_fuel_category": "SOLAR", "nameplate_mw": 4.7, "annual_net_gen_mwh": 5558.999}, {"oris_code": 55282, "plant_name": "Arlington Valley Energy Facility", "latitude": 33.3417, "longitude": -112.8897, "primary_fuel": "NG", "primary_fuel_category": "GAS", "nameplate_mw": 713.0, "annual_net_gen_mwh": 3496839.0}, {"oris_code": 57680, "plant_name": "Arlington Valley Solar Energy II", "latitude": 33.305, "longitude": -112.833888, "primary_fuel": "SUN", "primary_fuel_category": "SOLAR", "nameplate_mw": 129.0, "annual_net_gen_mwh": 348545.999}, {"oris_code": 59168, "plant_name": "Avalon Solar", "latitude": 32.001389, "longitude": -110.960556, "primary_fuel": "SUN", "primary_fuel_category": "SOLAR", "nameplate_mw": 29.0, "annual_net_gen_mwh": 70859.0}, {"oris_code": 60062, "plant_name": "Avalon Solar II", "latitude": 32.000854, "longitude": -110.958427, "primary_fuel": "SUN", "primary_fuel_category": "SOLAR", "nameplate_mw": 16.0, "annual_net_gen_mwh": 43863.0}, {"oris_code": 57657, "plant_name": "Avra Valley Solar", "latitude": 32.371667, "longitude": -111.282777, "primary_fuel": "SUN", "primary_fuel_category": "SOLAR", "nameplate_mw": 25.0, "annual_net_gen_mwh": 64758.0}, {"oris_code": 58262, "plant_name": "Badger 1", "latitude": 33.498003, "longitude": -112.813458, "primary_fuel": "SUN", "primary_fuel_category": "SOLAR", "nameplate_mw": 14.8, "annual_net_gen_mwh": 33216.0}, {"oris_code": 56482, "plant_name": "Black Mountain Generating Station", "latitude": 35.0361, "longitude": -114.1594, "primary_fuel": "NG", "primary_fuel_category": "GAS", "nameplate_mw": 121.0, "annual_net_gen_mwh": 94899.0}, {"oris_code": 58042, "plant_name": "Black Mountain Solar LLC", "latitude": 35.0227, "longitude": -114.1627, "primary_fuel": "SUN", "primary_fuel_category": "SOLAR", "nameplate_mw": 9.0, "annual_net_gen_mwh": 20270.0}, {"oris_code": 60413, "plant_name": "Bonnybrooke PV", "latitude": 33.053, "longitude": -111.34, "primary_fuel": "SUN", "primary_fuel_category": "SOLAR", "nameplate_mw": 50.0, "annual_net_gen_mwh": 118710.0}, {"oris_code": 64580, "plant_name": "Broadway 2 - Tucson Phase II", "latitude": 32.24817, "longitude": -111.2611, "primary_fuel": "SUN", "primary_fuel_category": "SOLAR", "nameplate_mw": 3.0, "annual_net_gen_mwh": 6265.0}, {"oris_code": 65185, "plant_name": "Broadway 3 - Tucson Phase I", "latitude": 32.24817, "longitude": -111.26111, "primary_fuel": "SUN", "primary_fuel_category": "SOLAR", "nameplate_mw": 1.0, "annual_net_gen_mwh": 1702.0}, {"oris_code": 58037, "plant_name": "Buckeye Union HS District 201", "latitude": 33.419167, "longitude": -112.576111, "primary_fuel": "SUN", "primary_fuel_category": "SOLAR", "nameplate_mw": 3.3, "annual_net_gen_mwh": 6322.0}, {"oris_code": 60685, "plant_name": "Canyon Del Oro High School Solar", "latitude": 32.374, "longitude": -110.974, "primary_fuel": "SUN", "primary_fuel_category": "SOLAR", "nameplate_mw": 4.4, "annual_net_gen_mwh": 2717.999}, {"oris_code": 64566, "plant_name": "Central Line Solar, LLC", "latitude": 32.834322, "longitude": -111.56803, "primary_fuel": "SUN", "primary_fuel_category": "SOLAR", "nameplate_mw": 100.0, "annual_net_gen_mwh": 263726.0}, {"oris_code": 66001, "plant_name": "Chevelon Butte Wind Farm", "latitude": 34.681496, "longitude": -110.801732, "primary_fuel": "WND", "primary_fuel_category": "WIND", "nameplate_mw": 238.2, "annual_net_gen_mwh": 235585.0}, {"oris_code": 57560, "plant_name": "Chino Solar Valley", "latitude": 34.71843, "longitude": -112.42899, "primary_fuel": "SUN", "primary_fuel_category": "SOLAR", "nameplate_mw": 19.0, "annual_net_gen_mwh": 26269.0}, {"oris_code": 113, "plant_name": "Cholla", "latitude": 34.9394, "longitude": -110.3033, "primary_fuel": "SUB", "primary_fuel_category": "COAL", "nameplate_mw": 425.9, "annual_net_gen_mwh": 1787705.0}, {"oris_code": 56229, "plant_name": "Cogeneration 1", "latitude": 32.229922, "longitude": -110.952797, "primary_fuel": "NG", "primary_fuel_category": "GAS", "nameplate_mw": 9.0, "annual_net_gen_mwh": 54148.31}, {"oris_code": 59233, "plant_name": "Cogeneration 2", "latitude": 32.240833, "longitude": -110.948333, "primary_fuel": "NG", "primary_fuel_category": "GAS", "nameplate_mw": 5.5, "annual_net_gen_mwh": 35719.28}, {"oris_code": 58832, "plant_name": "Cogenra - TEP", "latitude": 32.101944, "longitude": -110.813333, "primary_fuel": "SUN", "primary_fuel_category": "SOLAR", "nameplate_mw": 1.0, "annual_net_gen_mwh": 2090.0}, {"oris_code": 56948, "plant_name": "Coolidge Generating Station", "latitude": 32.917399, "longitude": -111.503327, "primary_fuel": "NG", "primary_fuel_category": "GAS", "nameplate_mw": 726.0, "annual_net_gen_mwh": 422112.996}, {"oris_code": 6177, "plant_name": "Coronado Generating Station", "latitude": 34.5789, "longitude": -109.2708, "primary_fuel": "SUB", "primary_fuel_category": "COAL", "nameplate_mw": 821.8, "annual_net_gen_mwh": 3082129.0}, {"oris_code": 57561, "plant_name": "Cotton Center Solar Hybrid", "latitude": 33.034722, "longitude": -112.661667, "primary_fuel": "SUN", "primary_fuel_category": "SOLAR", "nameplate_mw": 34.0, "annual_net_gen_mwh": 41151.0}, {"oris_code": 143, "plant_name": "Crosscut", "latitude": 33.439375, "longitude": -111.946052, "primary_fuel": "WAT", "primary_fuel_category": "HYDRO", "nameplate_mw": 3.0, "annual_net_gen_mwh": NaN}, {"oris_code": 152, "plant_name": "Davis Dam", "latitude": 35.197044, "longitude": -114.570669, "primary_fuel": "WAT", "primary_fuel_category": "HYDRO", "nameplate_mw": 254.8, "annual_net_gen_mwh": 908941.998}, {"oris_code": 59779, "plant_name": "Davis Monthan AFB (AZ) West Airfield", "latitude": 32.17356, "longitude": -110.899734, "primary_fuel": "SUN", "primary_fuel_category": "SOLAR", "nameplate_mw": 12.6, "annual_net_gen_mwh": 31454.0}, {"oris_code": 124, "plant_name": "De Moss Petrie Generating Station", "latitude": 32.252273, "longitude": -110.992148, "primary_fuel": "NG", "primary_fuel_category": "GAS", "nameplate_mw": 85.0, "annual_net_gen_mwh": 1310.0}, {"oris_code": 55129, "plant_name": "Desert Basin Generating Station", "latitude": 32.9042, "longitude": -111.7889, "primary_fuel": "NG", "primary_fuel_category": "GAS", "nameplate_mw": 745.1, "annual_net_gen_mwh": 2994698.0}, {"oris_code": 59444, "plant_name": "Desert Star Hybrid", "latitude": 33.145, "longitude": -112.66, "primary_fuel": "SUN", "primary_fuel_category": "SOLAR", "nameplate_mw": 20.0, "annual_net_gen_mwh": 29978.0}, {"oris_code": 114, "plant_name": "Douglas", "latitude": 31.364122, "longitude": -109.5538, "primary_fuel": "DFO", "primary_fuel_category": "OIL", "nameplate_mw": 26.1, "annual_net_gen_mwh": 90.0}, {"oris_code": 57098, "plant_name": "Dry Lake Wind LLC", "latitude": 34.6596, "longitude": -110.2842, "primary_fuel": "WND", "primary_fuel_category": "WIND", "nameplate_mw": 63.0, "annual_net_gen_mwh": 111556.0}, {"oris_code": 62899, "plant_name": "East Line Solar", "latitude": 32.84703, "longitude": -111.565072, "primary_fuel": "SUN", "primary_fuel_category": "SOLAR", "nameplate_mw": 100.0, "annual_net_gen_mwh": 253726.0}, {"oris_code": 62964, "plant_name": "El Sol BESS", "latitude": 33.568, "longitude": -112.305917, "primary_fuel": "MWH", "primary_fuel_category": "OTHF", "nameplate_mw": 50.0, "annual_net_gen_mwh": NaN}, {"oris_code": 60230, "plant_name": "Estrella Mountain PV", "latitude": 33.409803, "longitude": -112.340297, "primary_fuel": "SUN", "primary_fuel_category": "SOLAR", "nameplate_mw": 1.8, "annual_net_gen_mwh": 4162.0}, {"oris_code": 57930, "plant_name": "FRB Solar Farm", "latitude": 32.108147, "longitude": -110.824662, "primary_fuel": "SUN", "primary_fuel_category": "SOLAR", "nameplate_mw": 1.9, "annual_net_gen_mwh": 4103.0}, {"oris_code": 57997, "plant_name": "Foothills Solar Plant Hybrid", "latitude": 32.64856, "longitude": -114.428741, "primary_fuel": "SUN", "primary_fuel_category": "SOLAR", "nameplate_mw": 73.0, "annual_net_gen_mwh": 101512.0}, {"oris_code": 58972, "plant_name": "Fort Huachuca Solar PV Project", "latitude": 31.555278, "longitude": -110.35, "primary_fuel": "SUN", "primary_fuel_category": "SOLAR", "nameplate_mw": 17.7, "annual_net_gen_mwh": 37208.0}, {"oris_code": 58842, "plant_name": "Gato Montes Solar, LLC", "latitude": 32.102778, "longitude": -110.819722, "primary_fuel": "SUN", "primary_fuel_category": "SOLAR", "nameplate_mw": 5.0, "annual_net_gen_mwh": 6215.0}, {"oris_code": 59020, "plant_name": "Gila Bend Hybrid", "latitude": 32.940833, "longitude": -112.881389, "primary_fuel": "SUN", "primary_fuel_category": "SOLAR", "nameplate_mw": 73.4, "annual_net_gen_mwh": 80032.0}, {"oris_code": 60768, "plant_name": "Gila River Power Block 2", "latitude": 32.975, "longitude": -112.694444, "primary_fuel": "NG", "primary_fuel_category": "GAS", "nameplate_mw": 619.0, "annual_net_gen_mwh": 2813817.0}, {"oris_code": 55306, "plant_name": "Gila River Power Station", "latitude": 32.975, "longitude": -112.6944, "primary_fuel": "NG", "primary_fuel_category": "GAS", "nameplate_mw": 1857.0, "annual_net_gen_mwh": 7390743.0}, {"oris_code": 58543, "plant_name": "Gilbert Solar Facility I, LLC", "latitude": 33.355862, "longitude": -111.802355, "primary_fuel": "SUN", "primary_fuel_category": "SOLAR", "nameplate_mw": 2.0, "annual_net_gen_mwh": 3565.0}, {"oris_code": 153, "plant_name": "Glen Canyon Dam", "latitude": 36.936614, "longitude": -111.483872, "primary_fuel": "WAT", "primary_fuel_category": "HYDRO", "nameplate_mw": 1312.0, "annual_net_gen_mwh": 3363154.998}, {"oris_code": 61272, "plant_name": "Gray Hawk Solar", "latitude": 35.3635, "longitude": -113.8978, "primary_fuel": "SUN", "primary_fuel_category": "SOLAR", "nameplate_mw": 55.0, "annual_net_gen_mwh": 137974.0}, {"oris_code": 55124, "plant_name": "Griffith Energy Project", "latitude": 35.054029, "longitude": -114.133272, "primary_fuel": "NG", "primary_fuel_category": "GAS", "nameplate_mw": 655.0, "annual_net_gen_mwh": 3670670.0}, {"oris_code": 7179, "plant_name": "Headgate Rock", "latitude": 34.168264, "longitude": -114.277356, "primary_fuel": "WAT", "primary_fuel_category": "HYDRO", "nameplate_mw": 19.5, "annual_net_gen_mwh": 32271.0}, {"oris_code": 8902, "plant_name": "Hoover Dam (AZ)", "latitude": 36.01551, "longitude": -114.738006, "primary_fuel": "WAT", "primary_fuel_category": "HYDRO", "nameplate_mw": 1039.4, "annual_net_gen_mwh": 1459562.002}, {"oris_code": 145, "plant_name": "Horse Mesa", "latitude": 33.5907, "longitude": -111.344, "primary_fuel": "WAT", "primary_fuel_category": "HYDRO", "nameplate_mw": 129.5, "annual_net_gen_mwh": 127573.999}, {"oris_code": 58383, "plant_name": "Hyder II Hybrid", "latitude": 33.027, "longitude": -113.3489, "primary_fuel": "SUN", "primary_fuel_category": "SOLAR", "nameplate_mw": 28.0, "annual_net_gen_mwh": 30261.0}, {"oris_code": 57563, "plant_name": "Hyder Solar Hybrid", "latitude": 33.02566, "longitude": -113.34397, "primary_fuel": "SUN", "primary_fuel_category": "SOLAR", "nameplate_mw": 48.0, "annual_net_gen_mwh": 40223.0}, {"oris_code": 60822, "plant_name": "Intel - Ocotillo Campus Solar", "latitude": 33.243261, "longitude": -111.892354, "primary_fuel": "SUN", "primary_fuel_category": "SOLAR", "nameplate_mw": 4.2, "annual_net_gen_mwh": 10667.0}, {"oris_code": 60996, "plant_name": "Iron Horse Battery Storage Hybrid", "latitude": 32.098492, "longitude": -110.819119, "primary_fuel": "SUN", "primary_fuel_category": "SOLAR", "nameplate_mw": 12.0, "annual_net_gen_mwh": 4588.0}, {"oris_code": 126, "plant_name": "Irvington Generating Station", "latitude": 32.16, "longitude": -110.9047, "primary_fuel": "NG", "primary_fuel_category": "GAS", "nameplate_mw": 528.9, "annual_net_gen_mwh": 1390938.0}, {"oris_code": 60603, "plant_name": "Jacobson 5 MW Solar", "latitude": 35.304528, "longitude": -114.01183, "primary_fuel": "SUN", "primary_fuel_category": "SOLAR", "nameplate_mw": 4.4, "annual_net_gen_mwh": 8346.0}, {"oris_code": 58292, "plant_name": "Jewish Community Center PV", "latitude": 33.603056, "longitude": -111.924722, "primary_fuel": "SUN", "primary_fuel_category": "SOLAR", "nameplate_mw": 1.1, "annual_net_gen_mwh": 2010.0}, {"oris_code": 61268, "plant_name": "Kayenta Solar Project", "latitude": 36.771944, "longitude": -110.263889, "primary_fuel": "SUN", "primary_fuel_category": "SOLAR", "nameplate_mw": 55.3, "annual_net_gen_mwh": 102294.0}, {"oris_code": 57775, "plant_name": "Kingman 1", "latitude": 35.145833, "longitude": -114.0675, "primary_fuel": "WND", "primary_fuel_category": "WIND", "nameplate_mw": 10.5, "annual_net_gen_mwh": 18074.0}, {"oris_code": 147, "plant_name": "Kyrene Generating Station", "latitude": 33.3556, "longitude": -111.9353, "primary_fuel": "NG", "primary_fuel_category": "GAS", "nameplate_mw": 573.7, "annual_net_gen_mwh": 1258511.0}, {"oris_code": 57556, "plant_name": "La Senita", "latitude": 35.241675, "longitude": -114.004591, "primary_fuel": "SUN", "primary_fuel_category": "SOLAR", "nameplate_mw": 1.0, "annual_net_gen_mwh": 931.0}, {"oris_code": 58539, "plant_name": "Lake Pleasant WTP", "latitude": 33.820556, "longitude": -112.24, "primary_fuel": "SUN", "primary_fuel_category": "SOLAR", "nameplate_mw": 6.5, "annual_net_gen_mwh": 14390.0}, {"oris_code": 57324, "plant_name": "Luke Solar", "latitude": 33.526111, "longitude": -112.37944, "primary_fuel": "SUN", "primary_fuel_category": "SOLAR", "nameplate_mw": 11.2, "annual_net_gen_mwh": 32767.0}, {"oris_code": 57673, "plant_name": "Macys Goodyear", "latitude": 33.409063, "longitude": -112.414596, "primary_fuel": "SUN", "primary_fuel_category": "SOLAR", "nameplate_mw": 3.1, "annual_net_gen_mwh": 0.0}, {"oris_code": 66636, "plant_name": "McFarland A Solar and Storage", "latitude": 32.951288, "longitude": -113.490521, "primary_fuel": "SUN", "primary_fuel_category": "SOLAR", "nameplate_mw": 300.0, "annual_net_gen_mwh": -289.0}, {"oris_code": 64404, "plant_name": "Mesa Carport PV", "latitude": 33.347, "longitude": -111.602, "primary_fuel": "SUN", "primary_fuel_category": "SOLAR", "nameplate_mw": 4.6, "annual_net_gen_mwh": 8058.0}, {"oris_code": 55481, "plant_name": "Mesquite Generating Station", "latitude": 33.345047, "longitude": -112.864227, "primary_fuel": "NG", "primary_fuel_category": "GAS", "nameplate_mw": 1383.2, "annual_net_gen_mwh": 7613036.0}, {"oris_code": 57707, "plant_name": "Mesquite Solar 1", "latitude": 33.341833, "longitude": -112.904028, "primary_fuel": "SUN", "primary_fuel_category": "SOLAR", "nameplate_mw": 170.0, "annual_net_gen_mwh": 403904.998}, {"oris_code": 60307, "plant_name": "Mesquite Solar 2, LLC", "latitude": 33.332777, "longitude": -112.911388, "primary_fuel": "SUN", "primary_fuel_category": "SOLAR", "nameplate_mw": 100.0, "annual_net_gen_mwh": 274398.0}, {"oris_code": 60308, "plant_name": "Mesquite Solar 3, LLC", "latitude": 33.347583, "longitude": -112.936805, "primary_fuel": "SUN", "primary_fuel_category": "SOLAR", "nameplate_mw": 150.0, "annual_net_gen_mwh": 461621.0}, {"oris_code": 65963, "plant_name": "Mesquite Solar 5, LLC", "latitude": 33.3252, "longitude": -112.918, "primary_fuel": "SUN", "primary_fuel_category": "SOLAR", "nameplate_mw": 120.0, "annual_net_gen_mwh": 54872.0}, {"oris_code": 63114, "plant_name": "Mohave County Wind Farm", "latitude": 35.791142, "longitude": -114.504504, "primary_fuel": "WND", "primary_fuel_category": "WIND", "nameplate_mw": 350.0, "annual_net_gen_mwh": 961409.0}, {"oris_code": 63554, "plant_name": "Mohave Electric Cooperative at Joy Lane", "latitude": 34.9843, "longitude": -114.5565, "primary_fuel": "SUN", "primary_fuel_category": "SOLAR", "nameplate_mw": 10.9, "annual_net_gen_mwh": 17110.0}, {"oris_code": 59819, "plant_name": "Mohave Electric at Fort Mohave", "latitude": 34.9843, "longitude": -114.5565, "primary_fuel": "SUN", "primary_fuel_category": "SOLAR", "nameplate_mw": 4.4, "annual_net_gen_mwh": 8183.0}, {"oris_code": 67178, "plant_name": "Mohave Energy - Hybrid", "latitude": 34.99333, "longitude": -114.548432, "primary_fuel": "SUN", "primary_fuel_category": "SOLAR", "nameplate_mw": 32.6, "annual_net_gen_mwh": NaN}, {"oris_code": 148, "plant_name": "Mormon Flat", "latitude": 33.5536, "longitude": -111.4431, "primary_fuel": "WAT", "primary_fuel_category": "HYDRO", "nameplate_mw": 63.5, "annual_net_gen_mwh": 67830.0}, {"oris_code": 55372, "plant_name": "New Harquahala Generating Company", "latitude": 33.47596, "longitude": -113.113434, "primary_fuel": "NG", "primary_fuel_category": "GAS", "nameplate_mw": 1277.1, "annual_net_gen_mwh": 2326465.0}, {"oris_code": 6088, "plant_name": "North Loop", "latitude": 32.401, "longitude": -111.1262, "primary_fuel": "NG", "primary_fuel_category": "GAS", "nameplate_mw": 107.8, "annual_net_gen_mwh": 3648.0}, {"oris_code": 57403, "plant_name": "Northwest Regional", "latitude": 33.681944, "longitude": -112.476666, "primary_fuel": "LFG", "primary_fuel_category": "BIOMASS", "nameplate_mw": 3.2, "annual_net_gen_mwh": 17570.0}, {"oris_code": 56616, "plant_name": "Novo BioPower Plant", "latitude": 34.503158, "longitude": -110.334953, "primary_fuel": "WDS", "primary_fuel_category": "BIOMASS", "nameplate_mw": 27.2, "annual_net_gen_mwh": 175580.0}, {"oris_code": 63349, "plant_name": "OE_AZ1", "latitude": 33.776667, "longitude": -113.656111, "primary_fuel": "SUN", "primary_fuel_category": "SOLAR", "nameplate_mw": 32.5, "annual_net_gen_mwh": 81879.0}, {"oris_code": 116, "plant_name": "Ocotillo Power Plant", "latitude": 33.4225, "longitude": -111.9122, "primary_fuel": "NG", "primary_fuel_category": "GAS", "nameplate_mw": 626.2, "annual_net_gen_mwh": 640869.0}, {"oris_code": 6008, "plant_name": "Palo Verde", "latitude": 33.3881, "longitude": -112.8617, "primary_fuel": "NUC", "primary_fuel_category": "NUCLEAR", "nameplate_mw": 4209.6, "annual_net_gen_mwh": 31522590.0}, {"oris_code": 57562, "plant_name": "Paloma Solar Hybrid", "latitude": 33.021111, "longitude": -112.661389, "primary_fuel": "SUN", "primary_fuel_category": "SOLAR", "nameplate_mw": 34.0, "annual_net_gen_mwh": 38964.0}, {"oris_code": 58293, "plant_name": "Paradise Valley H.S. PV", "latitude": 33.6416, "longitude": -111.9997, "primary_fuel": "SUN", "primary_fuel_category": "SOLAR", "nameplate_mw": 1.3, "annual_net_gen_mwh": 2049.0}, {"oris_code": 58155, "plant_name": "Perrin Ranch Wind LLC", "latitude": 35.415556, "longitude": -112.271111, "primary_fuel": "WND", "primary_fuel_category": "WIND", "nameplate_mw": 99.2, "annual_net_gen_mwh": 222297.0}, {"oris_code": 58708, "plant_name": "Phoenix Airport East Economy Lot", "latitude": 33.4345, "longitude": -111.9842, "primary_fuel": "SUN", "primary_fuel_category": "SOLAR", "nameplate_mw": 1.1, "annual_net_gen_mwh": 848.0}, {"oris_code": 58709, "plant_name": "Phoenix Airport Rental Car Center", "latitude": 33.43042, "longitude": -112.04484, "primary_fuel": "SUN", "primary_fuel_category": "SOLAR", "nameplate_mw": 1.6, "annual_net_gen_mwh": 2706.0}, {"oris_code": 58486, "plant_name": "Picture Rocks Solar, LLC", "latitude": 32.369722, "longitude": -111.242778, "primary_fuel": "SUN", "primary_fuel_category": "SOLAR", "nameplate_mw": 20.0, "annual_net_gen_mwh": 48986.0}, {"oris_code": 62075, "plant_name": "Pima Community College", "latitude": 32.166494, "longitude": -110.816669, "primary_fuel": "SUN", "primary_fuel_category": "SOLAR", "nameplate_mw": 1.1, "annual_net_gen_mwh": 2404.0}, {"oris_code": 61104, "plant_name": "Pima Community College - East Campus", "latitude": 32.146142, "longitude": -110.990639, "primary_fuel": "SUN", "primary_fuel_category": "SOLAR", "nameplate_mw": 1.3, "annual_net_gen_mwh": 1556.0}, {"oris_code": 63531, "plant_name": "Pima Community College NW", "latitude": 32.343491, "longitude": -111.02786, "primary_fuel": "SUN", "primary_fuel_category": "SOLAR", "nameplate_mw": 1.3, "annual_net_gen_mwh": 3050.0}, {"oris_code": 61197, "plant_name": "Pima Energy Storage System", "latitude": 32.251647, "longitude": -110.991333, "primary_fuel": "MWH", "primary_fuel_category": "OTHF", "nameplate_mw": 10.0, "annual_net_gen_mwh": -341.0}, {"oris_code": 61678, "plant_name": "Pinal Central Energy Center Hybrid", "latitude": 32.875697, "longitude": -111.551111, "primary_fuel": "SUN", "primary_fuel_category": "SOLAR", "nameplate_mw": 30.0, "annual_net_gen_mwh": 55171.0}, {"oris_code": 57318, "plant_name": "Poseidon Solar, LLC", "latitude": 33.160601, "longitude": -111.484011, "primary_fuel": "SUN", "primary_fuel_category": "SOLAR", "nameplate_mw": 20.0, "annual_net_gen_mwh": 51359.0}, {"oris_code": 57379, "plant_name": "Poseidon Wind, LLC", "latitude": 34.6062, "longitude": -110.1734, "primary_fuel": "WND", "primary_fuel_category": "WIND", "nameplate_mw": 65.1, "annual_net_gen_mwh": 116724.0}, {"oris_code": 58171, "plant_name": "Prairie Fire", "latitude": 32.116389, "longitude": -110.82, "primary_fuel": "SUN", "primary_fuel_category": "SOLAR", "nameplate_mw": 4.5, "annual_net_gen_mwh": 7535.0}, {"oris_code": 56228, "plant_name": "Prescott Airport", "latitude": 34.6584, "longitude": -112.4008, "primary_fuel": "SUN", "primary_fuel_category": "SOLAR", "nameplate_mw": 3.0, "annual_net_gen_mwh": 2627.0}, {"oris_code": 58147, "plant_name": "Prescott Solar Plant", "latitude": 34.649444, "longitude": -112.4275, "primary_fuel": "SUN", "primary_fuel_category": "SOLAR", "nameplate_mw": 10.8, "annual_net_gen_mwh": 22875.0}, {"oris_code": 61913, "plant_name": "Punkin Center Battery Storage", "latitude": 33.87581, "longitude": -111.31356, "primary_fuel": "MWH", "primary_fuel_category": "OTHF", "nameplate_mw": 2.0, "annual_net_gen_mwh": 0.0}, {"oris_code": 57883, "plant_name": "Queen Creek Solar Farm", "latitude": 33.2675, "longitude": -111.612222, "primary_fuel": "SUN", "primary_fuel_category": "SOLAR", "nameplate_mw": 19.0, "annual_net_gen_mwh": 46444.0}, {"oris_code": 57795, "plant_name": "RE Ajo 1 LLC", "latitude": 32.367013, "longitude": -112.831401, "primary_fuel": "SUN", "primary_fuel_category": "SOLAR", "nameplate_mw": 4.5, "annual_net_gen_mwh": 9102.0}, {"oris_code": 57790, "plant_name": "RE Bagdad Solar I LLC", "latitude": 34.585833, "longitude": -113.177222, "primary_fuel": "SUN", "primary_fuel_category": "SOLAR", "nameplate_mw": 14.9, "annual_net_gen_mwh": 31740.0}, {"oris_code": 58501, "plant_name": "RE Gillespie 1 LLC", "latitude": 33.026389, "longitude": -112.665833, "primary_fuel": "SUN", "primary_fuel_category": "SOLAR", "nameplate_mw": 15.0, "annual_net_gen_mwh": 38509.0}, {"oris_code": 65972, "plant_name": "Raptor Ridge", "latitude": 32.146944, "longitude": -110.878056, "primary_fuel": "SUN", "primary_fuel_category": "SOLAR", "nameplate_mw": 12.5, "annual_net_gen_mwh": 33506.0}, {"oris_code": 58833, "plant_name": "Red Horse 2", "latitude": 32.286111, "longitude": -110.088056, "primary_fuel": "SUN", "primary_fuel_category": "SOLAR", "nameplate_mw": 81.0, "annual_net_gen_mwh": 203382.0}, {"oris_code": 60285, "plant_name": "Red Horse III", "latitude": 32.13597, "longitude": -110.05129, "primary_fuel": "SUN", "primary_fuel_category": "SOLAR", "nameplate_mw": 30.0, "annual_net_gen_mwh": 48058.0}, {"oris_code": 60467, "plant_name": "Red Rock", "latitude": 32.551026, "longitude": -111.289232, "primary_fuel": "SUN", "primary_fuel_category": "SOLAR", "nameplate_mw": 40.0, "annual_net_gen_mwh": 25977.0}, {"oris_code": 55455, "plant_name": "Redhawk Generating Facility", "latitude": 33.334562, "longitude": -112.840641, "primary_fuel": "NG", "primary_fuel_category": "GAS", "nameplate_mw": 1140.3, "annual_net_gen_mwh": 4430509.0}, {"oris_code": 59044, "plant_name": "Rio Rico Solar", "latitude": 31.5, "longitude": -111.008056, "primary_fuel": "SUN", "primary_fuel_category": "SOLAR", "nameplate_mw": 6.0, "annual_net_gen_mwh": 4282.0}, {"oris_code": 57524, "plant_name": "Roger Road WWTP", "latitude": 32.2894, "longitude": -111.0331, "primary_fuel": "SUN", "primary_fuel_category": "SOLAR", "nameplate_mw": 1.1, "annual_net_gen_mwh": 1132.0}, {"oris_code": 149, "plant_name": "Roosevelt", "latitude": 33.671104, "longitude": -111.161786, "primary_fuel": "WAT", "primary_fuel_category": "HYDRO", "nameplate_mw": 36.0, "annual_net_gen_mwh": 98825.0}, {"oris_code": 66925, "plant_name": "SR McNeal", "latitude": 31.5551, "longitude": -109.7013, "primary_fuel": "MWH", "primary_fuel_category": "OTHF", "nameplate_mw": 40.0, "annual_net_gen_mwh": 0.0}, {"oris_code": 58213, "plant_name": "Saddle Mountain Solar I", "latitude": 33.378333, "longitude": -113.180833, "primary_fuel": "SUN", "primary_fuel_category": "SOLAR", "nameplate_mw": 15.0, "annual_net_gen_mwh": 30904.0}, {"oris_code": 66716, "plant_name": "Saint Energy Storage II LLC", "latitude": 32.86951, "longitude": -111.514226, "primary_fuel": "MWH", "primary_fuel_category": "OTHF", "nameplate_mw": 100.0, "annual_net_gen_mwh": -2948.0}, {"oris_code": 63476, "plant_name": "Saint Solar", "latitude": 32.866276, "longitude": -111.502402, "primary_fuel": "SUN", "primary_fuel_category": "SOLAR", "nameplate_mw": 100.0, "annual_net_gen_mwh": 263275.0}, {"oris_code": 59634, "plant_name": "Sandstone Solar", "latitude": 33.035556, "longitude": -111.430278, "primary_fuel": "SUN", "primary_fuel_category": "SOLAR", "nameplate_mw": 45.0, "annual_net_gen_mwh": 111105.0}, {"oris_code": 8068, "plant_name": "Santan", "latitude": 33.3325, "longitude": -111.7503, "primary_fuel": "NG", "primary_fuel_category": "GAS", "nameplate_mw": 1326.0, "annual_net_gen_mwh": 5697255.0}, {"oris_code": 56812, "plant_name": "Solana Generating Station", "latitude": 32.922294, "longitude": -112.95594, "primary_fuel": "SUN", "primary_fuel_category": "SOLAR", "nameplate_mw": 280.0, "annual_net_gen_mwh": 774723.0}, {"oris_code": 66627, "plant_name": "Sonoran Solar Energy", "latitude": 33.248767, "longitude": -112.542402, "primary_fuel": "SUN", "primary_fuel_category": "SOLAR", "nameplate_mw": 750.0, "annual_net_gen_mwh": 90865.0}, {"oris_code": 100, "plant_name": "South Consolidated", "latitude": 33.466477, "longitude": -111.781064, "primary_fuel": "WAT", "primary_fuel_category": "HYDRO", "nameplate_mw": 1.4, "annual_net_gen_mwh": 0.0}, {"oris_code": 55177, "plant_name": "South Point Energy Center, LLC", "latitude": 34.8678, "longitude": -114.5317, "primary_fuel": "NG", "primary_fuel_category": "GAS", "nameplate_mw": 708.0, "annual_net_gen_mwh": 2671767.0}, {"oris_code": 8223, "plant_name": "Springerville Generating Station", "latitude": 34.3186, "longitude": -109.1639, "primary_fuel": "SUB", "primary_fuel_category": "COAL", "nameplate_mw": 1779.2, "annual_net_gen_mwh": 6733669.94}, {"oris_code": 150, "plant_name": "Stewart Mountain", "latitude": 33.5661, "longitude": -111.536, "primary_fuel": "WAT", "primary_fuel_category": "HYDRO", "nameplate_mw": 13.0, "annual_net_gen_mwh": 34978.0}, {"oris_code": 65956, "plant_name": "Storey Solar and Storage", "latitude": 32.8882, "longitude": -111.4978, "primary_fuel": "SUN", "primary_fuel_category": "SOLAR", "nameplate_mw": 210.0, "annual_net_gen_mwh": 29839.0}, {"oris_code": 60381, "plant_name": "Sulphur Springs", "latitude": 32.0628, "longitude": -109.919283, "primary_fuel": "SUN", "primary_fuel_category": "SOLAR", "nameplate_mw": 20.0, "annual_net_gen_mwh": 53285.0}, {"oris_code": 63440, "plant_name": "Sun Streams 2", "latitude": 33.320406, "longitude": -112.816771, "primary_fuel": "SUN", "primary_fuel_category": "SOLAR", "nameplate_mw": 150.0, "annual_net_gen_mwh": 366292.0}, {"oris_code": 60827, "plant_name": "Sun Streams, LLC", "latitude": 33.34884, "longitude": -112.8348, "primary_fuel": "SUN", "primary_fuel_category": "SOLAR", "nameplate_mw": 160.0, "annual_net_gen_mwh": 380637.0}, {"oris_code": 55522, "plant_name": "Sundance Power Plant", "latitude": 32.9285, "longitude": -111.5899, "primary_fuel": "NG", "primary_fuel_category": "GAS", "nameplate_mw": 605.0, "annual_net_gen_mwh": 522679.0}, {"oris_code": 61199, "plant_name": "T0588 Phoenix - AZ", "latitude": 33.447225, "longitude": -112.217664, "primary_fuel": "SUN", "primary_fuel_category": "SOLAR", "nameplate_mw": 1.2, "annual_net_gen_mwh": 618.0}, {"oris_code": 67824, "plant_name": "TJX Phoenix", "latitude": 33.418481, "longitude": -112.178067, "primary_fuel": "SUN", "primary_fuel_category": "SOLAR", "nameplate_mw": 2.9, "annual_net_gen_mwh": NaN}, {"oris_code": 67821, "plant_name": "TJX Tucson", "latitude": 32.125, "longitude": -110.913919, "primary_fuel": "SUN", "primary_fuel_category": "SOLAR", "nameplate_mw": 1.0, "annual_net_gen_mwh": NaN}, {"oris_code": 59455, "plant_name": "Tech Park Solar", "latitude": 32.097884, "longitude": -110.815696, "primary_fuel": "SUN", "primary_fuel_category": "SOLAR", "nameplate_mw": 5.0, "annual_net_gen_mwh": 13711.0}, {"oris_code": 57392, "plant_name": "UASTP I", "latitude": 32.096973, "longitude": -110.8106, "primary_fuel": "SUN", "primary_fuel_category": "SOLAR", "nameplate_mw": 1.2, "annual_net_gen_mwh": 403.0}, {"oris_code": 58516, "plant_name": "Union HS at Casa Grande", "latitude": 32.936944, "longitude": -111.738611, "primary_fuel": "SUN", "primary_fuel_category": "SOLAR", "nameplate_mw": 1.6, "annual_net_gen_mwh": 2573.0}, {"oris_code": 54594, "plant_name": "University of Arizona - Biosphere 2", "latitude": 32.578011, "longitude": -110.852608, "primary_fuel": "NG", "primary_fuel_category": "GAS", "nameplate_mw": 3.1, "annual_net_gen_mwh": 118.0}, {"oris_code": 6515, "plant_name": "Valencia", "latitude": 31.363472, "longitude": -110.931343, "primary_fuel": "NG", "primary_fuel_category": "GAS", "nameplate_mw": 108.0, "annual_net_gen_mwh": 5650.001}, {"oris_code": 59454, "plant_name": "Valencia Solar", "latitude": 32.145833, "longitude": -110.866944, "primary_fuel": "SUN", "primary_fuel_category": "SOLAR", "nameplate_mw": 10.0, "annual_net_gen_mwh": 26220.0},